{
    "type": "FeatureCollection",
    "features": [
        {
            "type": "Feature",
            "properties": {
                "label": "Create a programming language.md",
                "color": "rgb(81.73379927693996, 104.53649631373958, 114.69827267608916)"
            },
            "geometry": {
                "type": "Point",
                "coordinates": [
                    0.6508793023071017,
                    -0.03369197182040869
                ]
            }
        },
        {
            "type": "Feature",
            "properties": {
                "label": "Programming languages.md",
                "color": "rgb(107.62999291385186, 105.29569393666478, 113.0897100762262)"
            },
            "geometry": {
                "type": "Point",
                "coordinates": [
                    0.6902856640394326,
                    0.028205386602818565
                ]
            }
        },
        {
            "type": "Feature",
            "properties": {
                "label": "Inspectional reading.md",
                "color": "rgb(173.60334713501516, 168.48427094835216, 51.00854329858616)"
            },
            "geometry": {
                "type": "Point",
                "coordinates": [
                    0.552891009520608,
                    0.6891986233135835
                ]
            }
        },
        {
            "type": "Feature",
            "properties": {
                "label": "Reading philosophy.md",
                "color": "rgb(169.40663418160372, 145.07518524638743, 55.35181315068003)"
            },
            "geometry": {
                "type": "Point",
                "coordinates": [
                    0.34699589150548854,
                    0.6046544560565771
                ]
            }
        },
        {
            "type": "Feature",
            "properties": {
                "label": "Reading imaginary.md",
                "color": "rgb(168.81013696148375, 171.35123737950966, 53.235084042895366)"
            },
            "geometry": {
                "type": "Point",
                "coordinates": [
                    0.4916103315095716,
                    0.7147838014217631
                ]
            }
        },
        {
            "type": "Feature",
            "properties": {
                "label": "Reading technics should differ depending on book type.md",
                "color": "rgb(168.2735296536145, 150.7491320050841, 81.63937008769484)"
            },
            "geometry": {
                "type": "Point",
                "coordinates": [
                    0.6160317383310417,
                    0.8613110242258774
                ]
            }
        },
        {
            "type": "Feature",
            "properties": {
                "label": "Elementary reading.md",
                "color": "rgb(178.90793377095093, 161.72418003094035, 55.40125942023916)"
            },
            "geometry": {
                "type": "Point",
                "coordinates": [
                    0.5660596696812094,
                    0.4630857543242845
                ]
            }
        },
        {
            "type": "Feature",
            "properties": {
                "label": "Re-reading books.md",
                "color": "rgb(165.98865039770575, 151.34592162879684, 91.72101551062623)"
            },
            "geometry": {
                "type": "Point",
                "coordinates": [
                    0.6478076557133703,
                    0.7159705010821813
                ]
            }
        },
        {
            "type": "Feature",
            "properties": {
                "label": "Evaluate a book.md",
                "color": "rgb(154.71185702984064, 142.3213947596654, 80.59123524230037)"
            },
            "geometry": {
                "type": "Point",
                "coordinates": [
                    0.47838210884960225,
                    0.7045611126944306
                ]
            }
        },
        {
            "type": "Feature",
            "properties": {
                "label": "Syntopical reading.md",
                "color": "rgb(181.975879345438, 160.3283284128544, 75.90066680742274)"
            },
            "geometry": {
                "type": "Point",
                "coordinates": [
                    0.429130081075885,
                    0.5466244593560085
                ]
            }
        },
        {
            "type": "Feature",
            "properties": {
                "label": "The four levels of reading.md",
                "color": "rgb(177.03062016239872, 165.04847249220626, 42.533427925794996)"
            },
            "geometry": {
                "type": "Point",
                "coordinates": [
                    0.6176848271807427,
                    0.8724522082799415
                ]
            }
        },
        {
            "type": "Feature",
            "properties": {
                "label": "Reading science and mathematics.md",
                "color": "rgb(174.4538344816903, 152.6814431794075, 68.71739041425172)"
            },
            "geometry": {
                "type": "Point",
                "coordinates": [
                    0.4982197290638046,
                    0.6450585207284961
                ]
            }
        },
        {
            "type": "Feature",
            "properties": {
                "label": "Speed reading.md",
                "color": "rgb(178.03566148412716, 143.70726738814918, 91.42382958555486)"
            },
            "geometry": {
                "type": "Point",
                "coordinates": [
                    0.6808072298539719,
                    0.5805313309416389
                ]
            }
        },
        {
            "type": "Feature",
            "properties": {
                "label": "Selective reading.md",
                "color": "rgb(185.96984336230577, 143.28855826327438, 67.2454748020167)"
            },
            "geometry": {
                "type": "Point",
                "coordinates": [
                    0.6004298398407933,
                    0.6483116731529409
                ]
            }
        },
        {
            "type": "Feature",
            "properties": {
                "label": "Reading history.md",
                "color": "rgb(170.52768689428223, 146.24682788622874, 84.25239063037407)"
            },
            "geometry": {
                "type": "Point",
                "coordinates": [
                    0.5979420529183268,
                    0.48696415137311766
                ]
            }
        },
        {
            "type": "Feature",
            "properties": {
                "label": "Reading biographies.md",
                "color": "rgb(144.0321795456774, 168.6373675002575, 66.82287198595333)"
            },
            "geometry": {
                "type": "Point",
                "coordinates": [
                    0.433333302130078,
                    0.29144340036911764
                ]
            }
        },
        {
            "type": "Feature",
            "properties": {
                "label": "Reading digests.md",
                "color": "rgb(169.414704350013, 170.64461128988745, 81.32197906931867)"
            },
            "geometry": {
                "type": "Point",
                "coordinates": [
                    0.4876392953813849,
                    0.7240492328079617
                ]
            }
        },
        {
            "type": "Feature",
            "properties": {
                "label": "Reading news.md",
                "color": "rgb(170.589265783629, 164.9617175951469, 54.25115097445935)"
            },
            "geometry": {
                "type": "Point",
                "coordinates": [
                    0.6193804391964421,
                    0.3734917395133579
                ]
            }
        },
        {
            "type": "Feature",
            "properties": {
                "label": "Analytical reading.md",
                "color": "rgb(182.63936027098256, 161.22160897126798, 38.55939985866422)"
            },
            "geometry": {
                "type": "Point",
                "coordinates": [
                    0.5193535429023658,
                    0.8637580684942651
                ]
            }
        },
        {
            "type": "Feature",
            "properties": {
                "label": "Augmented reality.md",
                "color": "rgb(77.23120078062104, 136.0121329837578, 50.17257400315961)"
            },
            "geometry": {
                "type": "Point",
                "coordinates": [
                    0.5787202830446808,
                    -0.31481309546071706
                ]
            }
        },
        {
            "type": "Feature",
            "properties": {
                "label": "AR devices.md",
                "color": "rgb(50.88129718697867, 118.65351412267975, 57.301112938377656)"
            },
            "geometry": {
                "type": "Point",
                "coordinates": [
                    0.6588660892748119,
                    -0.35007136523166704
                ]
            }
        },
        {
            "type": "Feature",
            "properties": {
                "label": "Mixed reality.md",
                "color": "rgb(64.10697523538634, 147.1082838237057, 48.91032117841047)"
            },
            "geometry": {
                "type": "Point",
                "coordinates": [
                    0.5662132223038514,
                    -0.28494921952141133
                ]
            }
        },
        {
            "type": "Feature",
            "properties": {
                "label": "No-code tools for AR.md",
                "color": "rgb(46.51958107345473, 122.96839377927574, 109.95729463520357)"
            },
            "geometry": {
                "type": "Point",
                "coordinates": [
                    0.6365641502738366,
                    -0.31352286907008153
                ]
            }
        },
        {
            "type": "Feature",
            "properties": {
                "label": "Video.md",
                "color": "rgb(93.15103423755068, 140.03366488788987, 161.84411599697208)"
            },
            "geometry": {
                "type": "Point",
                "coordinates": [
                    0.8439801776303627,
                    -0.13131548269514454
                ]
            }
        },
        {
            "type": "Feature",
            "properties": {
                "label": "Premiere Pro.md",
                "color": "rgb(88.06385097382187, 157.5866255305511, 165.6361360517318)"
            },
            "geometry": {
                "type": "Point",
                "coordinates": [
                    0.7875289494678706,
                    -0.30909862941368726
                ]
            }
        },
        {
            "type": "Feature",
            "properties": {
                "label": "Make great videos.md",
                "color": "rgb(81.32383987272044, 142.43662086056517, 157.33703755848688)"
            },
            "geometry": {
                "type": "Point",
                "coordinates": [
                    0.8862358468589339,
                    -0.20372501674847754
                ]
            }
        },
        {
            "type": "Feature",
            "properties": {
                "label": "Hyperinflation.md",
                "color": "rgb(148.37382904337076, 138.62483378793613, 84.43583014526708)"
            },
            "geometry": {
                "type": "Point",
                "coordinates": [
                    0.4875014809394371,
                    -0.4087204376110235
                ]
            }
        },
        {
            "type": "Feature",
            "properties": {
                "label": "Printing more money could create inflation.md",
                "color": "rgb(128.26313132710828, 155.41673981474057, 100.88935108863129)"
            },
            "geometry": {
                "type": "Point",
                "coordinates": [
                    0.6202821519693714,
                    -0.17532548870006778
                ]
            }
        },
        {
            "type": "Feature",
            "properties": {
                "label": "Music theory.md",
                "color": "rgb(141.2103408053665, 146.16530797787954, 161.3114193501494)"
            },
            "geometry": {
                "type": "Point",
                "coordinates": [
                    0.45682040473251967,
                    0.004727951177231453
                ]
            }
        },
        {
            "type": "Feature",
            "properties": {
                "label": "One drop pattern.md",
                "color": "rgb(129.60320624198175, 139.721756828443, 157.9860041341885)"
            },
            "geometry": {
                "type": "Point",
                "coordinates": [
                    0.6443662595186275,
                    -0.3487581395834449
                ]
            }
        },
        {
            "type": "Feature",
            "properties": {
                "label": "Circle of fifth.md",
                "color": "rgb(132.34092478504323, 133.98968065816342, 140.9054968721006)"
            },
            "geometry": {
                "type": "Point",
                "coordinates": [
                    0.6949518208706813,
                    -0.110267537061832
                ]
            }
        },
        {
            "type": "Feature",
            "properties": {
                "label": "Harmonic Minor.md",
                "color": "rgb(109.7350966729974, 149.83270908250748, 131.61236903956393)"
            },
            "geometry": {
                "type": "Point",
                "coordinates": [
                    0.5488884970172068,
                    -0.26836116843287305
                ]
            }
        },
        {
            "type": "Feature",
            "properties": {
                "label": "Contrapuntal music (in film).md",
                "color": "rgb(157.87712586283035, 138.97649505156022, 125.88027598340632)"
            },
            "geometry": {
                "type": "Point",
                "coordinates": [
                    0.5369862706837794,
                    -0.25477905849477217
                ]
            }
        },
        {
            "type": "Feature",
            "properties": {
                "label": "Chords progressions.md",
                "color": "rgb(124.50122499839031, 138.31401833087213, 149.10072247259083)"
            },
            "geometry": {
                "type": "Point",
                "coordinates": [
                    0.4894139314649614,
                    -0.2586016054860502
                ]
            }
        },
        {
            "type": "Feature",
            "properties": {
                "label": "Freemium.md",
                "color": "rgb(117.3737571955007, 110.45574019199674, 121.49036100208428)"
            },
            "geometry": {
                "type": "Point",
                "coordinates": [
                    0.78375898669365,
                    -0.3646570013431494
                ]
            }
        },
        {
            "type": "Feature",
            "properties": {
                "label": "Writing on Medium.md",
                "color": "rgb(97.51358931528192, 125.13755754268078, 138.99393249406927)"
            },
            "geometry": {
                "type": "Point",
                "coordinates": [
                    0.7477219672875834,
                    -0.05249519040989787
                ]
            }
        },
        {
            "type": "Feature",
            "properties": {
                "label": "Newsletters.md",
                "color": "rgb(111.55329588857586, 115.99149068020822, 165.8460604840884)"
            },
            "geometry": {
                "type": "Point",
                "coordinates": [
                    0.5906225608995247,
                    -0.28238756055752295
                ]
            }
        },
        {
            "type": "Feature",
            "properties": {
                "label": "Somatosensory.md",
                "color": "rgb(147.95801077692354, 149.15777641700456, 90.25398178989482)"
            },
            "geometry": {
                "type": "Point",
                "coordinates": [
                    0.5429688471890247,
                    -0.19542884793891027
                ]
            }
        },
        {
            "type": "Feature",
            "properties": {
                "label": "Working memory.md",
                "color": "rgb(161.96342336111047, 124.34330419063608, 143.4717330897038)"
            },
            "geometry": {
                "type": "Point",
                "coordinates": [
                    0.8542108181991265,
                    0.19832150475103338
                ]
            }
        },
        {
            "type": "Feature",
            "properties": {
                "label": "Hardware.md",
                "color": "rgb(42.256780641054405, 104.00955652307921, 111.30556727359433)"
            },
            "geometry": {
                "type": "Point",
                "coordinates": [
                    0.5852678535559258,
                    -0.30552785560590556
                ]
            }
        },
        {
            "type": "Feature",
            "properties": {
                "label": "DSP (Digital Signal Processor).md",
                "color": "rgb(63.875140910618285, 122.80694623296174, 91.50933393446192)"
            },
            "geometry": {
                "type": "Point",
                "coordinates": [
                    0.6561599183993588,
                    -0.42631749667262114
                ]
            }
        },
        {
            "type": "Feature",
            "properties": {
                "label": "ALU (Arithmetic Logic Unit).md",
                "color": "rgb(76.69451870427645, 105.66945818116463, 56.84162571254507)"
            },
            "geometry": {
                "type": "Point",
                "coordinates": [
                    0.4131425373127832,
                    -0.30726687481491394
                ]
            }
        },
        {
            "type": "Feature",
            "properties": {
                "label": "Raspberry Pi.md",
                "color": "rgb(34.27804845102577, 92.87014451256312, 75.45599985026497)"
            },
            "geometry": {
                "type": "Point",
                "coordinates": [
                    0.6048183626989416,
                    -0.47901363637453614
                ]
            }
        },
        {
            "type": "Feature",
            "properties": {
                "label": "ARM (Advanced RISC Machines).md",
                "color": "rgb(53.593710154071644, 114.58986235018875, 69.28341437410762)"
            },
            "geometry": {
                "type": "Point",
                "coordinates": [
                    0.6381699913510814,
                    -0.48124638641088574
                ]
            }
        },
        {
            "type": "Feature",
            "properties": {
                "label": "RAM (Random-Access Memory).md",
                "color": "rgb(118.38457335959926, 114.19031214328511, 98.73726095559331)"
            },
            "geometry": {
                "type": "Point",
                "coordinates": [
                    0.6794016290557262,
                    -0.1527190169884899
                ]
            }
        },
        {
            "type": "Feature",
            "properties": {
                "label": "Places.md",
                "color": "rgb(144.1075705631068, 108.54841447529896, 151.2587068621814)"
            },
            "geometry": {
                "type": "Point",
                "coordinates": [
                    0.30513240078681425,
                    -0.47311910267666946
                ]
            }
        },
        {
            "type": "Feature",
            "properties": {
                "label": "Third places.md",
                "color": "rgb(145.20806778243278, 136.3398394247382, 183.72072536352226)"
            },
            "geometry": {
                "type": "Point",
                "coordinates": [
                    0.3095938606960376,
                    -0.18816963825416397
                ]
            }
        },
        {
            "type": "Feature",
            "properties": {
                "label": "State controlled saving plans.md",
                "color": "rgb(127.92450657631346, 120.9787111051945, 129.9076725012026)"
            },
            "geometry": {
                "type": "Point",
                "coordinates": [
                    0.1935833924955706,
                    -0.34835891886054815
                ]
            }
        },
        {
            "type": "Feature",
            "properties": {
                "label": "Stock markets.md",
                "color": "rgb(84.05863464215992, 97.64334653823299, 109.4042193928008)"
            },
            "geometry": {
                "type": "Point",
                "coordinates": [
                    0.6241232302460114,
                    -0.16605183933823428
                ]
            }
        },
        {
            "type": "Feature",
            "properties": {
                "label": "Real estate.md",
                "color": "rgb(102.70739394172706, 115.22975931369047, 96.48733544929433)"
            },
            "geometry": {
                "type": "Point",
                "coordinates": [
                    0.5521769285563027,
                    -0.16098919394168068
                ]
            }
        },
        {
            "type": "Feature",
            "properties": {
                "label": "Old books.md",
                "color": "rgb(107.38777834885907, 117.92821936424487, 98.76047468412723)"
            },
            "geometry": {
                "type": "Point",
                "coordinates": [
                    0.12856845150495322,
                    0.22830513754755757
                ]
            }
        },
        {
            "type": "Feature",
            "properties": {
                "label": "Cryptocurrencies.md",
                "color": "rgb(55.79549131200076, 115.17094737994287, 110.45478258406939)"
            },
            "geometry": {
                "type": "Point",
                "coordinates": [
                    0.6061605352074572,
                    -0.3138633031810989
                ]
            }
        },
        {
            "type": "Feature",
            "properties": {
                "label": "Exchange Traded Funds (ETF).md",
                "color": "rgb(86.78914479625443, 98.31066873448381, 96.87246446409273)"
            },
            "geometry": {
                "type": "Point",
                "coordinates": [
                    0.5197782491513036,
                    -0.37516751474487914
                ]
            }
        },
        {
            "type": "Feature",
            "properties": {
                "label": "Saving habit.md",
                "color": "rgb(131.12335267072265, 149.11511119420862, 155.9163317554367)"
            },
            "geometry": {
                "type": "Point",
                "coordinates": [
                    0.7688478376103454,
                    -0.09512666386320082
                ]
            }
        },
        {
            "type": "Feature",
            "properties": {
                "label": "Emergency fund.md",
                "color": "rgb(119.76722828271446, 137.62126910379348, 120.44102770127905)"
            },
            "geometry": {
                "type": "Point",
                "coordinates": [
                    0.7541477226082293,
                    -0.18755031217267087
                ]
            }
        },
        {
            "type": "Feature",
            "properties": {
                "label": "My investment strategy.md",
                "color": "rgb(117.99515948090327, 126.93250301279636, 126.54468473210763)"
            },
            "geometry": {
                "type": "Point",
                "coordinates": [
                    0.6672050298072554,
                    -0.16258559136484826
                ]
            }
        },
        {
            "type": "Feature",
            "properties": {
                "label": "Personal finances.md",
                "color": "rgb(133.52558422115158, 126.30246695099964, 153.45997511830473)"
            },
            "geometry": {
                "type": "Point",
                "coordinates": [
                    0.6821488956326143,
                    -0.14770149289343076
                ]
            }
        },
        {
            "type": "Feature",
            "properties": {
                "label": "AudioSet dataset.md",
                "color": "rgb(70.89777861013015, 113.66820421071787, 137.283825449274)"
            },
            "geometry": {
                "type": "Point",
                "coordinates": [
                    0.4002879588323602,
                    -0.3737288644017477
                ]
            }
        },
        {
            "type": "Feature",
            "properties": {
                "label": "Sound classification.md",
                "color": "rgb(77.82936721128775, 112.31542632981416, 112.13723193830776)"
            },
            "geometry": {
                "type": "Point",
                "coordinates": [
                    0.6322237798217646,
                    -0.3378507087036394
                ]
            }
        },
        {
            "type": "Feature",
            "properties": {
                "label": "Mel Spectogram.md",
                "color": "rgb(115.56432606560868, 146.8231491792639, 130.85038163950568)"
            },
            "geometry": {
                "type": "Point",
                "coordinates": [
                    0.5242099199886856,
                    -0.29088025452425287
                ]
            }
        },
        {
            "type": "Feature",
            "properties": {
                "label": "Welcome in my mind \ud83e\udde0.md",
                "color": "rgb(93.59905330149549, 133.98109514236847, 171.1199358929696)"
            },
            "geometry": {
                "type": "Point",
                "coordinates": [
                    0.4407199118412063,
                    -0.26011660780666174
                ]
            }
        },
        {
            "type": "Feature",
            "properties": {
                "label": "Soundproofing.md",
                "color": "rgb(118.24510990212349, 143.43281186594336, 155.70503864658954)"
            },
            "geometry": {
                "type": "Point",
                "coordinates": [
                    0.6872961857016004,
                    -0.2648198569062227
                ]
            }
        },
        {
            "type": "Feature",
            "properties": {
                "label": "The zettelkasten method and how to take smart notes.md",
                "color": "rgb(119.47699163384107, 91.9907067735922, 256.0)"
            },
            "geometry": {
                "type": "Point",
                "coordinates": [
                    0.8084443854820104,
                    0.45209427093795235
                ]
            }
        },
        {
            "type": "Feature",
            "properties": {
                "label": "Fleeting notes to capture thoughts.md",
                "color": "rgb(126.57922279152152, 97.9899510187648, 243.85722180853122)"
            },
            "geometry": {
                "type": "Point",
                "coordinates": [
                    0.785738437110595,
                    0.2812199789523336
                ]
            }
        },
        {
            "type": "Feature",
            "properties": {
                "label": "Zettelkasten for musicians.md",
                "color": "rgb(103.52667526192047, 103.1489189749716, 252.50163617916053)"
            },
            "geometry": {
                "type": "Point",
                "coordinates": [
                    0.7706075673625875,
                    0.2289060615432072
                ]
            }
        },
        {
            "type": "Feature",
            "properties": {
                "label": "Open-closed principle makes Zettelkasten closer to its original design.md",
                "color": "rgb(116.536085154301, 119.35434272135451, 192.09647396589207)"
            },
            "geometry": {
                "type": "Point",
                "coordinates": [
                    0.7340813143150461,
                    0.14009737658691762
                ]
            }
        },
        {
            "type": "Feature",
            "properties": {
                "label": "Litterature note to quote and reference content.md",
                "color": "rgb(151.34143952892575, 103.26125667233607, 218.0883705492465)"
            },
            "geometry": {
                "type": "Point",
                "coordinates": [
                    0.5796930679343274,
                    0.5032433807817205
                ]
            }
        },
        {
            "type": "Feature",
            "properties": {
                "label": "Writing is the only thing that count.md",
                "color": "rgb(160.752328015064, 114.09324794494825, 216.07506973855595)"
            },
            "geometry": {
                "type": "Point",
                "coordinates": [
                    0.8890239414284972,
                    0.6753127997978959
                ]
            }
        },
        {
            "type": "Feature",
            "properties": {
                "label": "Permanent notes to link and develop.md",
                "color": "rgb(125.81570238099549, 110.10535228290394, 235.11543299926072)"
            },
            "geometry": {
                "type": "Point",
                "coordinates": [
                    0.7404307672024877,
                    0.39628099070689266
                ]
            }
        },
        {
            "type": "Feature",
            "properties": {
                "label": "202107062037 Critics need rhetoric.md",
                "color": "rgb(184.24370313610572, 152.97641137347006, 39.049356191582646)"
            },
            "geometry": {
                "type": "Point",
                "coordinates": [
                    0.47608050330812207,
                    0.6526848748166849
                ]
            }
        },
        {
            "type": "Feature",
            "properties": {
                "label": "202107071942 Books never solve practical problems, action does.md",
                "color": "rgb(158.09873362422638, 146.77410803790934, 50.272409678760795)"
            },
            "geometry": {
                "type": "Point",
                "coordinates": [
                    0.41385352433395245,
                    0.880347529891336
                ]
            }
        },
        {
            "type": "Feature",
            "properties": {
                "label": "202106122210 Expert can rely on their intuition.md",
                "color": "rgb(138.06373483794607, 124.40849365311637, 178.06036657875669)"
            },
            "geometry": {
                "type": "Point",
                "coordinates": [
                    0.801632425204593,
                    0.44567530050246196
                ]
            }
        },
        {
            "type": "Feature",
            "properties": {
                "label": "202107032023 Don't be an expert, make unexpected connections instead.md",
                "color": "rgb(122.81111366181436, 112.81697488259479, 173.0444554240496)"
            },
            "geometry": {
                "type": "Point",
                "coordinates": [
                    0.9399025161880359,
                    0.3666666388060446
                ]
            }
        },
        {
            "type": "Feature",
            "properties": {
                "label": "202106201717 Avoid immobility by starting projects as drafts.md",
                "color": "rgb(144.75556868305878, 116.00876384410473, 191.683321342923)"
            },
            "geometry": {
                "type": "Point",
                "coordinates": [
                    0.9827410401563192,
                    0.32927834307065196
                ]
            }
        },
        {
            "type": "Feature",
            "properties": {
                "label": "202107062101 Don't read with a dictionnary.md",
                "color": "rgb(188.8078373406219, 133.9908014977365, 111.27776209027104)"
            },
            "geometry": {
                "type": "Point",
                "coordinates": [
                    0.4306218868092905,
                    0.43219872057752895
                ]
            }
        },
        {
            "type": "Feature",
            "properties": {
                "label": "202106131144 Learning has multiple phases.md",
                "color": "rgb(171.82164189689001, 108.46819715898172, 181.03955379734134)"
            },
            "geometry": {
                "type": "Point",
                "coordinates": [
                    0.8098815884924669,
                    0.5034846781132698
                ]
            }
        },
        {
            "type": "Feature",
            "properties": {
                "label": "202107061345 Interpretative reading.md",
                "color": "rgb(178.8781982663448, 168.2143686153087, 50.34917129593747)"
            },
            "geometry": {
                "type": "Point",
                "coordinates": [
                    0.41922206360892417,
                    0.799445230637217
                ]
            }
        },
        {
            "type": "Feature",
            "properties": {
                "label": "202106152233 Thinking about solutions to previous problem helps finding creative solutions.md",
                "color": "rgb(144.3198782754865, 132.53601718803873, 142.15874875149055)"
            },
            "geometry": {
                "type": "Point",
                "coordinates": [
                    0.6927976825457626,
                    0.2840619880618364
                ]
            }
        },
        {
            "type": "Feature",
            "properties": {
                "label": "202107071935 The two types of practical books.md",
                "color": "rgb(161.3890080753506, 142.63037214400967, 48.458421516261225)"
            },
            "geometry": {
                "type": "Point",
                "coordinates": [
                    0.41469175029633537,
                    0.8350126670051976
                ]
            }
        },
        {
            "type": "Feature",
            "properties": {
                "label": "202109222330 Is Thus Spake Zarathoustra has any historical fundements?.md",
                "color": "rgb(138.204448881872, 163.96921347277757, 132.47994983807803)"
            },
            "geometry": {
                "type": "Point",
                "coordinates": [
                    0.3473695507043159,
                    0.0699754883877916
                ]
            }
        },
        {
            "type": "Feature",
            "properties": {
                "label": "202106172137 Writing a lot trigger the large number theory on finding great topics.md",
                "color": "rgb(144.6233072813377, 116.16376103959105, 210.91701606983355)"
            },
            "geometry": {
                "type": "Point",
                "coordinates": [
                    0.6781827498528976,
                    0.5300937573131498
                ]
            }
        },
        {
            "type": "Feature",
            "properties": {
                "label": "202106122212 Better taking note by hand.md",
                "color": "rgb(143.0866767236061, 111.41650250214146, 217.44371883007213)"
            },
            "geometry": {
                "type": "Point",
                "coordinates": [
                    0.7945206408075682,
                    0.6106585603878394
                ]
            }
        },
        {
            "type": "Feature",
            "properties": {
                "label": "202107062109 Don't use extrinsic aid synchronously.md",
                "color": "rgb(171.02352639125482, 166.45070285606738, 57.941749678441724)"
            },
            "geometry": {
                "type": "Point",
                "coordinates": [
                    0.452784996684558,
                    0.8570034079768409
                ]
            }
        },
        {
            "type": "Feature",
            "properties": {
                "label": "202107062046 Book completeness as an indiscutable argument.md",
                "color": "rgb(155.84990543088088, 144.87229500786106, 66.71470423248374)"
            },
            "geometry": {
                "type": "Point",
                "coordinates": [
                    0.3309003021596965,
                    0.5597285982291604
                ]
            }
        },
        {
            "type": "Feature",
            "properties": {
                "label": "202106270022 Teaching require empathy.md",
                "color": "rgb(169.09057326417235, 140.54698153151134, 55.68730793332931)"
            },
            "geometry": {
                "type": "Point",
                "coordinates": [
                    0.5132466602226552,
                    0.46800491154328117
                ]
            }
        },
        {
            "type": "Feature",
            "properties": {
                "label": "202106290039 Don't stop on unknown references when reading.md",
                "color": "rgb(176.3316417556884, 141.3657538783727, 124.63936619056676)"
            },
            "geometry": {
                "type": "Point",
                "coordinates": [
                    0.5215765257853495,
                    0.7445854625973284
                ]
            }
        },
        {
            "type": "Feature",
            "properties": {
                "label": "202106270039 Best collectors are artists.md",
                "color": "rgb(124.32417569101631, 131.66925649681446, 191.9594080646808)"
            },
            "geometry": {
                "type": "Point",
                "coordinates": [
                    0.7001743998394533,
                    0.009450485085057697
                ]
            }
        },
        {
            "type": "Feature",
            "properties": {
                "label": "202107072126 Imaginary litterature is harder to read.md",
                "color": "rgb(156.49619929943188, 168.89371978027694, 57.57808071529982)"
            },
            "geometry": {
                "type": "Point",
                "coordinates": [
                    0.3482317163399438,
                    0.6387270568379942
                ]
            }
        },
        {
            "type": "Feature",
            "properties": {
                "label": "202106122322 Remembering is bringing back memory to conscious mind.md",
                "color": "rgb(155.83096799312887, 124.07552357004067, 178.3468479393355)"
            },
            "geometry": {
                "type": "Point",
                "coordinates": [
                    0.915435714505019,
                    0.4147725824011432
                ]
            }
        },
        {
            "type": "Feature",
            "properties": {
                "label": "202106122339 Don't worry about slipbox's completeness.md",
                "color": "rgb(137.8539386532075, 127.87034665269309, 233.10955778100157)"
            },
            "geometry": {
                "type": "Point",
                "coordinates": [
                    0.7325498284798058,
                    0.440735125752476
                ]
            }
        },
        {
            "type": "Feature",
            "properties": {
                "label": "202107032032 Focus is for executing, openess is for creativity.md",
                "color": "rgb(156.2415884620431, 125.13053447042678, 153.8806966315978)"
            },
            "geometry": {
                "type": "Point",
                "coordinates": [
                    0.9741874377565785,
                    0.20385717238832532
                ]
            }
        },
        {
            "type": "Feature",
            "properties": {
                "label": "202106131132 Litterature notes helps comparing different authors ideas.md",
                "color": "rgb(172.1829556267046, 119.2818481437485, 168.58090433185728)"
            },
            "geometry": {
                "type": "Point",
                "coordinates": [
                    0.5587051437830204,
                    0.5576707408398276
                ]
            }
        },
        {
            "type": "Feature",
            "properties": {
                "label": "202106152303 Laxism is a threat to creativity.md",
                "color": "rgb(144.3390153456347, 126.83837110350119, 176.23400380457048)"
            },
            "geometry": {
                "type": "Point",
                "coordinates": [
                    0.7638756880117858,
                    0.2464153561673925
                ]
            }
        },
        {
            "type": "Feature",
            "properties": {
                "label": "202107272301 Our mental growth don't have limit.md",
                "color": "rgb(150.39036848933145, 161.35291552226943, 101.17438103132707)"
            },
            "geometry": {
                "type": "Point",
                "coordinates": [
                    0.5186543609442897,
                    0.3845539395468274
                ]
            }
        },
        {
            "type": "Feature",
            "properties": {
                "label": "~ What are litterature notes?.md",
                "color": "rgb(160.86606593125208, 113.15734150638737, 207.08558798200278)"
            },
            "geometry": {
                "type": "Point",
                "coordinates": [
                    0.5123655655769824,
                    0.39617028367813123
                ]
            }
        },
        {
            "type": "Feature",
            "properties": {
                "label": "202106122307 Reading with a pen in hand is a way to test our understanding.md",
                "color": "rgb(174.09582434892891, 126.35368008444617, 146.14282104029263)"
            },
            "geometry": {
                "type": "Point",
                "coordinates": [
                    0.8401350656749036,
                    0.8098550546074191
                ]
            }
        },
        {
            "type": "Feature",
            "properties": {
                "label": "202106122336 Understanding improve strenght retrieval.md",
                "color": "rgb(180.88495677077572, 112.70660043281389, 149.72116432158776)"
            },
            "geometry": {
                "type": "Point",
                "coordinates": [
                    0.7831645218458371,
                    0.5910992116599685
                ]
            }
        },
        {
            "type": "Feature",
            "properties": {
                "label": "202106270036 Don't search for good taste, search for pleasant things.md",
                "color": "rgb(154.366904018907, 145.31352198941624, 118.42606687454023)"
            },
            "geometry": {
                "type": "Point",
                "coordinates": [
                    0.5490574453059318,
                    -0.12295138128603424
                ]
            }
        },
        {
            "type": "Feature",
            "properties": {
                "label": "202106122329 Multiplying notes connections free us from unexpected cues.md",
                "color": "rgb(148.7792283102379, 115.65794948277487, 208.22635367957696)"
            },
            "geometry": {
                "type": "Point",
                "coordinates": [
                    0.6931578458331389,
                    0.33824912011014646
                ]
            }
        },
        {
            "type": "Feature",
            "properties": {
                "label": "202106270049 Collectors should have an antilibrary.md",
                "color": "rgb(128.001516083497, 166.21961332411422, 131.91890459375065)"
            },
            "geometry": {
                "type": "Point",
                "coordinates": [
                    0.32801121967586366,
                    0.16797651015255025
                ]
            }
        },
        {
            "type": "Feature",
            "properties": {
                "label": "202106201723 Learning shouldn't be linear but graph oriented.md",
                "color": "rgb(120.94112219203639, 104.8286555484126, 183.73535629555082)"
            },
            "geometry": {
                "type": "Point",
                "coordinates": [
                    0.8156365576357422,
                    0.2783182981982879
                ]
            }
        },
        {
            "type": "Feature",
            "properties": {
                "label": "202107072122 Be careful about practical book's propaganda.md",
                "color": "rgb(170.844993650105, 149.7581071396722, 41.762519814034604)"
            },
            "geometry": {
                "type": "Point",
                "coordinates": [
                    0.45597082572489694,
                    0.6042617583521512
                ]
            }
        },
        {
            "type": "Feature",
            "properties": {
                "label": "202107071931 Analytical reading apply on non-fiction.md",
                "color": "rgb(169.36263927302514, 170.9127740869871, 57.567680074180714)"
            },
            "geometry": {
                "type": "Point",
                "coordinates": [
                    0.3539922488883107,
                    0.8310459591345938
                ]
            }
        },
        {
            "type": "Feature",
            "properties": {
                "label": "202106131120 Index notes like a writter.md",
                "color": "rgb(143.8390135119956, 117.6041484868052, 208.01709352901332)"
            },
            "geometry": {
                "type": "Point",
                "coordinates": [
                    0.7854890306382876,
                    0.4307386447244506
                ]
            }
        },
        {
            "type": "Feature",
            "properties": {
                "label": "202106131155 Paradigm shifts comes from little steps toward a direction.md",
                "color": "rgb(155.5994845174508, 99.87547866418667, 150.8512504100066)"
            },
            "geometry": {
                "type": "Point",
                "coordinates": [
                    0.7691181137621563,
                    0.13278158633066217
                ]
            }
        },
        {
            "type": "Feature",
            "properties": {
                "label": "202106152243 Creativity and thinking better flourish under restrictions.md",
                "color": "rgb(142.9507406767154, 122.95525928503173, 164.3696939067669)"
            },
            "geometry": {
                "type": "Point",
                "coordinates": [
                    0.7585372465057482,
                    0.20556219845596507
                ]
            }
        },
        {
            "type": "Feature",
            "properties": {
                "label": "202106122248 Storing notes in our slipbox is investing in ourself.md",
                "color": "rgb(136.48362126819947, 99.6718577213505, 240.92557578983406)"
            },
            "geometry": {
                "type": "Point",
                "coordinates": [
                    0.8421441756199449,
                    0.49898681720480037
                ]
            }
        },
        {
            "type": "Feature",
            "properties": {
                "label": "202106122343 The slipbox is a tool to think in, not about.md",
                "color": "rgb(135.87598317889564, 125.90907043825459, 211.47300564499534)"
            },
            "geometry": {
                "type": "Point",
                "coordinates": [
                    0.7095035976426662,
                    0.3427511098611122
                ]
            }
        },
        {
            "type": "Feature",
            "properties": {
                "label": "202106152240 Solutions are just trade offs and can't be perfect.md",
                "color": "rgb(137.16704878381682, 108.5908741590102, 165.30941138052862)"
            },
            "geometry": {
                "type": "Point",
                "coordinates": [
                    0.7770911260754456,
                    0.34135869799199187
                ]
            }
        },
        {
            "type": "Feature",
            "properties": {
                "label": "202106270032 Aided and unaided learning.md",
                "color": "rgb(161.03216574535307, 131.46906179835798, 80.15109949190835)"
            },
            "geometry": {
                "type": "Point",
                "coordinates": [
                    0.6217570183384374,
                    0.3554117323711351
                ]
            }
        },
        {
            "type": "Feature",
            "properties": {
                "label": "202107032150 Questioning a book to read more actively.md",
                "color": "rgb(173.63978510423564, 159.4640882664954, 51.641890244508716)"
            },
            "geometry": {
                "type": "Point",
                "coordinates": [
                    0.3917401714885769,
                    0.5845565038108153
                ]
            }
        },
        {
            "type": "Feature",
            "properties": {
                "label": "202107061349 Criticizing a book is a reader obligation toward the author.md",
                "color": "rgb(179.34646773309012, 154.86985731096698, 36.24676653961937)"
            },
            "geometry": {
                "type": "Point",
                "coordinates": [
                    0.45597291162370457,
                    0.7676088058292563
                ]
            }
        },
        {
            "type": "Feature",
            "properties": {
                "label": "202107052315 Grasp author's key sentences and arguments in a book.md",
                "color": "rgb(186.2470519643127, 135.07625773343761, 84.89059918407247)"
            },
            "geometry": {
                "type": "Point",
                "coordinates": [
                    0.49164107590856726,
                    0.43716313800840245
                ]
            }
        },
        {
            "type": "Feature",
            "properties": {
                "label": "202106122315 Reading without writing isn't learning.md",
                "color": "rgb(177.9602594789541, 113.22076048856972, 152.071671408635)"
            },
            "geometry": {
                "type": "Point",
                "coordinates": [
                    0.8926089912151652,
                    0.7212464294787039
                ]
            }
        },
        {
            "type": "Feature",
            "properties": {
                "label": "202106270021 The three kinds of reading.md",
                "color": "rgb(179.37981988988162, 158.254190297724, 35.544439870596264)"
            },
            "geometry": {
                "type": "Point",
                "coordinates": [
                    0.6133829997430147,
                    0.7688382201262947
                ]
            }
        },
        {
            "type": "Feature",
            "properties": {
                "label": "202106131114 Note connections helps find patterns accross non related subjects.md",
                "color": "rgb(143.4769316665557, 123.66036712809772, 197.23453327321548)"
            },
            "geometry": {
                "type": "Point",
                "coordinates": [
                    0.6886091558636376,
                    0.33863378314180337
                ]
            }
        },
        {
            "type": "Feature",
            "properties": {
                "label": "202107052256 Find the important keywords in a book help analysis.md",
                "color": "rgb(197.2903623619485, 139.99321931418504, 60.1835930617313)"
            },
            "geometry": {
                "type": "Point",
                "coordinates": [
                    0.583093667808388,
                    0.5232053476784443
                ]
            }
        },
        {
            "type": "Feature",
            "properties": {
                "label": "202106152224 Finding creative and functional solutions require abstraction.md",
                "color": "rgb(152.9785276717392, 101.17899075073012, 191.54213283649028)"
            },
            "geometry": {
                "type": "Point",
                "coordinates": [
                    0.8038326639985759,
                    0.472572743664135
                ]
            }
        },
        {
            "type": "Feature",
            "properties": {
                "label": "202107062058 Read with exigence.md",
                "color": "rgb(168.0136681277394, 146.7654663570459, 66.90094619686451)"
            },
            "geometry": {
                "type": "Point",
                "coordinates": [
                    0.5824593501006117,
                    0.8291347540860241
                ]
            }
        },
        {
            "type": "Feature",
            "properties": {
                "label": "202106152315 Zettelkasten make the act of choosing topic seamless.md",
                "color": "rgb(126.03200513103428, 94.77576113635752, 234.69046830012644)"
            },
            "geometry": {
                "type": "Point",
                "coordinates": [
                    0.8173075523625599,
                    0.29677451399802013
                ]
            }
        },
        {
            "type": "Feature",
            "properties": {
                "label": "202106122321 Forgetting is active inhibition.md",
                "color": "rgb(151.66653941939404, 141.69544737904295, 179.1376345988639)"
            },
            "geometry": {
                "type": "Point",
                "coordinates": [
                    0.7996725738962891,
                    0.29532448114103943
                ]
            }
        },
        {
            "type": "Feature",
            "properties": {
                "label": "202106122246 Smart notes are about thinking beyound actual context.md",
                "color": "rgb(146.35383672791698, 109.55131382023052, 235.18429104026202)"
            },
            "geometry": {
                "type": "Point",
                "coordinates": [
                    0.7398405612007553,
                    0.6747307453015442
                ]
            }
        },
        {
            "type": "Feature",
            "properties": {
                "label": "202106172158 Finding unheard ideas require open-mindness.md",
                "color": "rgb(139.95290963659755, 106.9281771625179, 222.14538923394161)"
            },
            "geometry": {
                "type": "Point",
                "coordinates": [
                    0.7959539473362377,
                    0.4889928393974866
                ]
            }
        },
        {
            "type": "Feature",
            "properties": {
                "label": "202106152227 Knowing failures helps as much as knowing successes.md",
                "color": "rgb(145.22110504401448, 116.12203407278115, 186.30528350716529)"
            },
            "geometry": {
                "type": "Point",
                "coordinates": [
                    0.8660227188515669,
                    0.4795544763700476
                ]
            }
        },
        {
            "type": "Feature",
            "properties": {
                "label": "202107272232 Zettelkasten and digital gardening is syntopical writing.md",
                "color": "rgb(144.4823673918934, 118.80636890521873, 181.6821931942898)"
            },
            "geometry": {
                "type": "Point",
                "coordinates": [
                    0.6384174087277718,
                    0.4899797783327727
                ]
            }
        },
        {
            "type": "Feature",
            "properties": {
                "label": "202106242157 There's various level of active reading.md",
                "color": "rgb(168.8014044942322, 159.87839636978038, 50.60313965779447)"
            },
            "geometry": {
                "type": "Point",
                "coordinates": [
                    0.6715145803173891,
                    0.7463831720278815
                ]
            }
        },
        {
            "type": "Feature",
            "properties": {
                "label": "202106122221 The slipbox should be agnostic.md",
                "color": "rgb(142.9594550496841, 116.66750834063927, 220.15507931395382)"
            },
            "geometry": {
                "type": "Point",
                "coordinates": [
                    0.7401370196394417,
                    0.46550443758731586
                ]
            }
        },
        {
            "type": "Feature",
            "properties": {
                "label": "202106122244 Reformulating ideas enlarge our set of thinking tools.md",
                "color": "rgb(171.06095531318377, 105.53039257814456, 195.14798637869376)"
            },
            "geometry": {
                "type": "Point",
                "coordinates": [
                    0.9523169888111964,
                    0.6836346737089183
                ]
            }
        },
        {
            "type": "Feature",
            "properties": {
                "label": "202107272303 Geniuses characteristics.md",
                "color": "rgb(167.68664049772474, 130.07033009123174, 77.97269263498652)"
            },
            "geometry": {
                "type": "Point",
                "coordinates": [
                    0.5076171397331396,
                    0.6898492312533898
                ]
            }
        },
        {
            "type": "Feature",
            "properties": {
                "label": "Transistors.md",
                "color": "rgb(99.6680733108754, 128.02894656536665, 70.9026181315307)"
            },
            "geometry": {
                "type": "Point",
                "coordinates": [
                    0.7834218962499423,
                    -0.25742544901943565
                ]
            }
        },
        {
            "type": "Feature",
            "properties": {
                "label": "Electronics.md",
                "color": "rgb(66.44951241649693, 132.21130642802115, 126.5994234091329)"
            },
            "geometry": {
                "type": "Point",
                "coordinates": [
                    0.7262080543159277,
                    -0.2882743165455381
                ]
            }
        },
        {
            "type": "Feature",
            "properties": {
                "label": "Logic gates.md",
                "color": "rgb(94.3295962724437, 123.39970935016254, 60.313519483608985)"
            },
            "geometry": {
                "type": "Point",
                "coordinates": [
                    0.8044239393869478,
                    -0.21596547791946574
                ]
            }
        },
        {
            "type": "Feature",
            "properties": {
                "label": "Wiring audio cables.md",
                "color": "rgb(88.867541259944, 153.20002341451502, 148.176725298941)"
            },
            "geometry": {
                "type": "Point",
                "coordinates": [
                    0.40069963554326365,
                    -0.36752549500229226
                ]
            }
        },
        {
            "type": "Feature",
            "properties": {
                "label": "Nixie tubes.md",
                "color": "rgb(78.53842267336914, 147.14380383133414, 101.70882779630853)"
            },
            "geometry": {
                "type": "Point",
                "coordinates": [
                    0.5268631647932492,
                    -0.39353951384871616
                ]
            }
        },
        {
            "type": "Feature",
            "properties": {
                "label": "Universaly complete set.md",
                "color": "rgb(109.82147429260756, 127.8248945300528, 74.48323840249924)"
            },
            "geometry": {
                "type": "Point",
                "coordinates": [
                    0.68392951015399,
                    -0.1875023111541988
                ]
            }
        },
        {
            "type": "Feature",
            "properties": {
                "label": "Removable soundproofed studios.md",
                "color": "rgb(104.57981276262849, 140.9868035710584, 165.99832886304787)"
            },
            "geometry": {
                "type": "Point",
                "coordinates": [
                    0.8155494495377047,
                    -0.32469245061258023
                ]
            }
        },
        {
            "type": "Feature",
            "properties": {
                "label": "Arranging studios in a building.md",
                "color": "rgb(102.07741418722934, 150.8124508328883, 157.31676680886986)"
            },
            "geometry": {
                "type": "Point",
                "coordinates": [
                    0.8213916781445652,
                    -0.22414592636006253
                ]
            }
        },
        {
            "type": "Feature",
            "properties": {
                "label": "Preamp.md",
                "color": "rgb(78.89091797212855, 145.91583969172945, 102.1559973192866)"
            },
            "geometry": {
                "type": "Point",
                "coordinates": [
                    0.16660139117890177,
                    -0.5626343528369446
                ]
            }
        },
        {
            "type": "Feature",
            "properties": {
                "label": "Compressor.md",
                "color": "rgb(100.19212692218694, 158.99129968595176, 107.57410109380496)"
            },
            "geometry": {
                "type": "Point",
                "coordinates": [
                    0.6621498284754542,
                    -0.38145205700562385
                ]
            }
        },
        {
            "type": "Feature",
            "properties": {
                "label": "Monitors.md",
                "color": "rgb(100.84339871968473, 153.87269900057913, 113.08302617342513)"
            },
            "geometry": {
                "type": "Point",
                "coordinates": [
                    0.7447185289669094,
                    -0.22030240562630687
                ]
            }
        },
        {
            "type": "Feature",
            "properties": {
                "label": "Distortion.md",
                "color": "rgb(96.65259260211387, 148.47775318996452, 117.01723406150265)"
            },
            "geometry": {
                "type": "Point",
                "coordinates": [
                    0.620861502077056,
                    -0.40691085175731895
                ]
            }
        },
        {
            "type": "Feature",
            "properties": {
                "label": "Microphones.md",
                "color": "rgb(90.55185363292198, 152.5050567928361, 136.15292483483663)"
            },
            "geometry": {
                "type": "Point",
                "coordinates": [
                    0.5920642462391151,
                    -0.37391646757651703
                ]
            }
        },
        {
            "type": "Feature",
            "properties": {
                "label": "Audio interface.md",
                "color": "rgb(65.95045782235451, 136.16357203203333, 104.54171611655974)"
            },
            "geometry": {
                "type": "Point",
                "coordinates": [
                    0.6643816859307701,
                    -0.3682862296104808
                ]
            }
        },
        {
            "type": "Feature",
            "properties": {
                "label": "Top of the line studio gear configurations.md",
                "color": "rgb(96.00651280902046, 150.43975166017893, 137.5867711899566)"
            },
            "geometry": {
                "type": "Point",
                "coordinates": [
                    0.7403785053121468,
                    -0.37132373631448484
                ]
            }
        },
        {
            "type": "Feature",
            "properties": {
                "label": "Books and Binders.md",
                "color": "rgb(73.17478652860567, 114.34619239962689, 154.19495032403637)"
            },
            "geometry": {
                "type": "Point",
                "coordinates": [
                    0.11360275615209421,
                    0.14689732207016162
                ]
            }
        },
        {
            "type": "Feature",
            "properties": {
                "label": "A brief computer history.md",
                "color": "rgb(90.6374408298016, 104.39534837534812, 87.62777325451655)"
            },
            "geometry": {
                "type": "Point",
                "coordinates": [
                    0.5810940414905874,
                    -0.13703779947148564
                ]
            }
        },
        {
            "type": "Feature",
            "properties": {
                "label": "SOLID.md",
                "color": "rgb(113.34679604009399, 114.29886086573231, 94.00798514411636)"
            },
            "geometry": {
                "type": "Point",
                "coordinates": [
                    0.6540494466892571,
                    -0.15493947603504676
                ]
            }
        },
        {
            "type": "Feature",
            "properties": {
                "label": "Turing completeness.md",
                "color": "rgb(114.66254192225337, 105.78688619490761, 62.27515873404192)"
            },
            "geometry": {
                "type": "Point",
                "coordinates": [
                    0.7563523637930502,
                    -0.1322080781376717
                ]
            }
        },
        {
            "type": "Feature",
            "properties": {
                "label": "Oriented Object Programming.md",
                "color": "rgb(105.01332790229844, 122.39097005326792, 65.3671863916216)"
            },
            "geometry": {
                "type": "Point",
                "coordinates": [
                    0.49627035043947665,
                    -0.18309233155354007
                ]
            }
        },
        {
            "type": "Feature",
            "properties": {
                "label": "Memex.md",
                "color": "rgb(122.06643921135088, 132.73664943116867, 133.09104400388262)"
            },
            "geometry": {
                "type": "Point",
                "coordinates": [
                    0.49680049978853347,
                    0.06089987082732349
                ]
            }
        },
        {
            "type": "Feature",
            "properties": {
                "label": "202106122320 Differences between Slipbox and Second-brain?.md",
                "color": "rgb(131.93431252948596, 130.12332060194538, 188.64913163862542)"
            },
            "geometry": {
                "type": "Point",
                "coordinates": [
                    0.6959527325774111,
                    0.07247017127911222
                ]
            }
        },
        {
            "type": "Feature",
            "properties": {
                "label": "202109222326 Thoughts fragment.md",
                "color": "rgb(158.15233590237756, 147.96824675467607, 115.87430536163636)"
            },
            "geometry": {
                "type": "Point",
                "coordinates": [
                    0.37316993862487463,
                    0.45843566202208264
                ]
            }
        },
        {
            "type": "Feature",
            "properties": {
                "label": "202106152307 Restrict time on tasks to focus on the real value.md",
                "color": "rgb(158.67004819838675, 105.90733883804081, 148.58603916147445)"
            },
            "geometry": {
                "type": "Point",
                "coordinates": [
                    0.6829168615653,
                    -0.06657995896534472
                ]
            }
        },
        {
            "type": "Feature",
            "properties": {
                "label": "202107061403 Memex, second brain, PKM, digital garden, what's the differences?.md",
                "color": "rgb(128.20264379695402, 144.82135819278525, 145.6626879469653)"
            },
            "geometry": {
                "type": "Point",
                "coordinates": [
                    0.5606307630139642,
                    -0.10824960638252402
                ]
            }
        },
        {
            "type": "Feature",
            "properties": {
                "label": "202106131148 Practice jazz improvisation by following learning phase principle.md",
                "color": "rgb(155.43844050442567, 114.97027341379031, 159.60523132947935)"
            },
            "geometry": {
                "type": "Point",
                "coordinates": [
                    0.7587024272776398,
                    0.042875605778429006
                ]
            }
        },
        {
            "type": "Feature",
            "properties": {
                "label": "202106152301 Binary code has the best restriction-output ratio.md",
                "color": "rgb(116.26733634161926, 133.34119413645317, 122.62256417540429)"
            },
            "geometry": {
                "type": "Point",
                "coordinates": [
                    0.732064188491727,
                    0.013949851200282588
                ]
            }
        },
        {
            "type": "Feature",
            "properties": {
                "label": "202106152252 Imposing restrictions to fight the blank page syndrome.md",
                "color": "rgb(135.0488476323986, 133.03203163782723, 182.17761715724845)"
            },
            "geometry": {
                "type": "Point",
                "coordinates": [
                    0.7209892255548401,
                    0.10403140063715308
                ]
            }
        },
        {
            "type": "Feature",
            "properties": {
                "label": "~ What are fleeting notes?.md",
                "color": "rgb(149.72449688082577, 105.33555438789273, 228.09105915129572)"
            },
            "geometry": {
                "type": "Point",
                "coordinates": [
                    0.5769884919073764,
                    0.35311761926858953
                ]
            }
        },
        {
            "type": "Feature",
            "properties": {
                "label": "202106172218 Slipbox can make working on multiple manuscrits at the same time seamless.md",
                "color": "rgb(140.32278704321484, 123.56812714160536, 206.93752279772792)"
            },
            "geometry": {
                "type": "Point",
                "coordinates": [
                    0.7489575056672548,
                    0.13855550539509282
                ]
            }
        },
        {
            "type": "Feature",
            "properties": {
                "label": "202109181532 Domestic Cozy.md",
                "color": "rgb(110.57053880151227, 142.68232131871792, 109.89885448318746)"
            },
            "geometry": {
                "type": "Point",
                "coordinates": [
                    0.6571956103260985,
                    -0.2875504186696146
                ]
            }
        },
        {
            "type": "Feature",
            "properties": {
                "label": "202106172211 Focus isn't what we do but what we don't do.md",
                "color": "rgb(152.00681448733553, 124.89971571449217, 129.09413654443523)"
            },
            "geometry": {
                "type": "Point",
                "coordinates": [
                    0.9453197000138255,
                    0.07527573833619643
                ]
            }
        },
        {
            "type": "Feature",
            "properties": {
                "label": "202107122234 Quadrivium and Trivium.md",
                "color": "rgb(159.18517839560317, 130.0582956090352, 81.48286813163477)"
            },
            "geometry": {
                "type": "Point",
                "coordinates": [
                    0.2130464772178704,
                    -0.1436844339418575
                ]
            }
        },
        {
            "type": "Feature",
            "properties": {
                "label": "202106290027 Make analytical TL;DR of chapters in books.md",
                "color": "rgb(155.59717319039916, 134.3643105476305, 184.19801183208793)"
            },
            "geometry": {
                "type": "Point",
                "coordinates": [
                    0.5364179065130688,
                    0.7596456982137028
                ]
            }
        },
        {
            "type": "Feature",
            "properties": {
                "label": "202106122301 Viewing notes toward the Golden Circle framework helps stating on the relevance of ideas.md",
                "color": "rgb(141.82532911515875, 147.41514446819576, 144.49763649476608)"
            },
            "geometry": {
                "type": "Point",
                "coordinates": [
                    0.7940808024790682,
                    0.2229039711847533
                ]
            }
        },
        {
            "type": "Feature",
            "properties": {
                "label": "202106122255 Empty notes are better than no notes at all.md",
                "color": "rgb(143.62600136863736, 128.96125545961246, 193.07236357238315)"
            },
            "geometry": {
                "type": "Point",
                "coordinates": [
                    0.6128940862658516,
                    0.2171383433289113
                ]
            }
        },
        {
            "type": "Feature",
            "properties": {
                "label": "Axioms.md",
                "color": "rgb(171.39970102680653, 107.74902339467883, 84.22346421651139)"
            },
            "geometry": {
                "type": "Point",
                "coordinates": [
                    0.47180543582049633,
                    0.09493343537099433
                ]
            }
        },
        {
            "type": "Feature",
            "properties": {
                "label": "Normal distribution.md",
                "color": "rgb(131.63707634480676, 112.46006708241885, 89.7335672656967)"
            },
            "geometry": {
                "type": "Point",
                "coordinates": [
                    0.631145097270929,
                    -0.18313671400248852
                ]
            }
        },
        {
            "type": "Feature",
            "properties": {
                "label": "Mixing fundings strategy.md",
                "color": "rgb(119.82573953794326, 109.81182976167435, 139.17439692344394)"
            },
            "geometry": {
                "type": "Point",
                "coordinates": [
                    0.4221702898258358,
                    -0.45864039610394636
                ]
            }
        },
        {
            "type": "Feature",
            "properties": {
                "label": "Seed round.md",
                "color": "rgb(98.10707469590787, 93.20517871645188, 142.6164169145505)"
            },
            "geometry": {
                "type": "Point",
                "coordinates": [
                    0.5835273995675448,
                    -0.4180959722535973
                ]
            }
        },
        {
            "type": "Feature",
            "properties": {
                "label": "Pitch deck.md",
                "color": "rgb(98.95901186560342, 121.81545155059331, 150.8089029601687)"
            },
            "geometry": {
                "type": "Point",
                "coordinates": [
                    0.7561786718932891,
                    -0.33146803274525943
                ]
            }
        },
        {
            "type": "Feature",
            "properties": {
                "label": "Fundraising.md",
                "color": "rgb(128.55575308686662, 118.50938075370254, 138.9565896566009)"
            },
            "geometry": {
                "type": "Point",
                "coordinates": [
                    0.8893818530159388,
                    -0.1562175855069105
                ]
            }
        },
        {
            "type": "Feature",
            "properties": {
                "label": "VC lists.md",
                "color": "rgb(96.82121496302466, 114.1726373335587, 138.10008901939554)"
            },
            "geometry": {
                "type": "Point",
                "coordinates": [
                    0.6567875884839889,
                    -0.34322335823899197
                ]
            }
        },
        {
            "type": "Feature",
            "properties": {
                "label": "Pitching a VC - SaaS case.md",
                "color": "rgb(105.33658476523036, 98.01141031556914, 167.51830304989957)"
            },
            "geometry": {
                "type": "Point",
                "coordinates": [
                    0.3408500575234061,
                    -0.5119900871125546
                ]
            }
        },
        {
            "type": "Feature",
            "properties": {
                "label": "Making underwater videos.md",
                "color": "rgb(97.25291245509803, 207.25478565226962, 135.90107547096432)"
            },
            "geometry": {
                "type": "Point",
                "coordinates": [
                    0.8325377514446559,
                    -0.36556483857535266
                ]
            }
        },
        {
            "type": "Feature",
            "properties": {
                "label": "Gas blending.md",
                "color": "rgb(110.0810597371879, 253.64218573398563, 100.62537026907899)"
            },
            "geometry": {
                "type": "Point",
                "coordinates": [
                    0.7834697291642925,
                    -0.35774714909673705
                ]
            }
        },
        {
            "type": "Feature",
            "properties": {
                "label": "Hyperoxic trimix.md",
                "color": "rgb(105.52393455519953, 246.21420591251325, 78.36741951703345)"
            },
            "geometry": {
                "type": "Point",
                "coordinates": [
                    0.5622479101071853,
                    -0.5956760837466214
                ]
            }
        },
        {
            "type": "Feature",
            "properties": {
                "label": "Normoxic trimix.md",
                "color": "rgb(111.19976309324116, 245.45325430017522, 86.59834177789975)"
            },
            "geometry": {
                "type": "Point",
                "coordinates": [
                    0.5577776080078912,
                    -0.5096854984789455
                ]
            }
        },
        {
            "type": "Feature",
            "properties": {
                "label": "Partial pressure.md",
                "color": "rgb(126.24246425164304, 220.84972566693398, 93.61102175052062)"
            },
            "geometry": {
                "type": "Point",
                "coordinates": [
                    0.5514139617988826,
                    -0.2408541321185782
                ]
            }
        },
        {
            "type": "Feature",
            "properties": {
                "label": "Nitrox.md",
                "color": "rgb(107.33855999739515, 247.7989367548036, 82.52997303041815)"
            },
            "geometry": {
                "type": "Point",
                "coordinates": [
                    0.6723748644954727,
                    -0.43416894098129116
                ]
            }
        },
        {
            "type": "Feature",
            "properties": {
                "label": "Hypoxic trimix.md",
                "color": "rgb(113.83148522329458, 245.94661139750266, 92.37226131634856)"
            },
            "geometry": {
                "type": "Point",
                "coordinates": [
                    0.6102873671157937,
                    -0.5582177803481831
                ]
            }
        },
        {
            "type": "Feature",
            "properties": {
                "label": "Trimix.md",
                "color": "rgb(102.75127351838667, 234.68874519652485, 76.24695082065102)"
            },
            "geometry": {
                "type": "Point",
                "coordinates": [
                    0.6957592816004583,
                    -0.5634738990697986
                ]
            }
        },
        {
            "type": "Feature",
            "properties": {
                "label": "Hyperoxia.md",
                "color": "rgb(140.44440724196457, 243.56500264258474, 79.98317067787167)"
            },
            "geometry": {
                "type": "Point",
                "coordinates": [
                    0.5424993516340639,
                    -0.4000585489400078
                ]
            }
        },
        {
            "type": "Feature",
            "properties": {
                "label": "Nitrogen narcosis.md",
                "color": "rgb(138.24292278261782, 243.5338654758702, 114.79597856029093)"
            },
            "geometry": {
                "type": "Point",
                "coordinates": [
                    0.7587577969638991,
                    -0.37338889971322886
                ]
            }
        },
        {
            "type": "Feature",
            "properties": {
                "label": "Decompression sickness.md",
                "color": "rgb(115.79591083425524, 256.0, 87.37053206493833)"
            },
            "geometry": {
                "type": "Point",
                "coordinates": [
                    0.7294593392887854,
                    -0.4576570759884241
                ]
            }
        },
        {
            "type": "Feature",
            "properties": {
                "label": "Scuba diving.md",
                "color": "rgb(120.96862443969927, 231.9513442446413, 94.340557839576)"
            },
            "geometry": {
                "type": "Point",
                "coordinates": [
                    0.6714789808531367,
                    -0.35355658921005084
                ]
            }
        },
        {
            "type": "Feature",
            "properties": {
                "label": "Redbone - Childish Gambino.md",
                "color": "rgb(104.79668890964044, 135.58375077361177, 167.91123076175614)"
            },
            "geometry": {
                "type": "Point",
                "coordinates": [
                    0.24082611148756036,
                    -0.3485055418705449
                ]
            }
        },
        {
            "type": "Feature",
            "properties": {
                "label": "Rapture - Koffee.md",
                "color": "rgb(100.10694251053866, 134.29696241358263, 153.84331297057594)"
            },
            "geometry": {
                "type": "Point",
                "coordinates": [
                    0.3684739272023793,
                    -0.44969998250276244
                ]
            }
        },
        {
            "type": "Feature",
            "properties": {
                "label": "Giant Steps - John Coltrane.md",
                "color": "rgb(86.16907938882049, 117.58445148400048, 171.50113761864392)"
            },
            "geometry": {
                "type": "Point",
                "coordinates": [
                    0.19298997907015125,
                    -0.22110945044480765
                ]
            }
        },
        {
            "type": "Feature",
            "properties": {
                "label": "Armando's Rhumba - Chick Corea.md",
                "color": "rgb(102.78788098148695, 139.71978004753956, 156.45150051974582)"
            },
            "geometry": {
                "type": "Point",
                "coordinates": [
                    0.0826103123826876,
                    -0.3629919969404499
                ]
            }
        },
        {
            "type": "Feature",
            "properties": {
                "label": "~ Full list of the song I learned - Map of content.md",
                "color": "rgb(100.20224886010388, 149.70177782598827, 175.55102167957233)"
            },
            "geometry": {
                "type": "Point",
                "coordinates": [
                    0.41853063320804096,
                    -0.23204375174669417
                ]
            }
        },
        {
            "type": "Feature",
            "properties": {
                "label": "Nemesis - Aaron Parks.md",
                "color": "rgb(86.6332124522345, 131.43280159464308, 169.8721150806545)"
            },
            "geometry": {
                "type": "Point",
                "coordinates": [
                    0.23052322458414853,
                    -0.23692079773704827
                ]
            }
        },
        {
            "type": "Feature",
            "properties": {
                "label": "All the things you are - Jerome Kern.md",
                "color": "rgb(93.85359144319787, 117.45156688807592, 145.9955161446508)"
            },
            "geometry": {
                "type": "Point",
                "coordinates": [
                    0.2915276153615207,
                    -0.22080086398421206
                ]
            }
        },
        {
            "type": "Feature",
            "properties": {
                "label": "Running Away - Bob Marley and the Wailers.md",
                "color": "rgb(104.46703318865093, 157.20755283513907, 158.18776293381023)"
            },
            "geometry": {
                "type": "Point",
                "coordinates": [
                    0.3919809603775915,
                    -0.3585714884056327
                ]
            }
        },
        {
            "type": "Feature",
            "properties": {
                "label": "Crazy Baldhead - Bob Marley and the Wailers.md",
                "color": "rgb(108.60686880502809, 152.7963358331536, 160.5319572680051)"
            },
            "geometry": {
                "type": "Point",
                "coordinates": [
                    0.30873033524207744,
                    -0.390514045070258
                ]
            }
        },
        {
            "type": "Feature",
            "properties": {
                "label": "Voyage Autour Du Monde (Tome I) - Dumont D'urville.md",
                "color": "rgb(144.5202508486277, 189.13365913658222, 141.38793341572492)"
            },
            "geometry": {
                "type": "Point",
                "coordinates": [
                    -0.48967318180381814,
                    -0.17530616321345696
                ]
            }
        },
        {
            "type": "Feature",
            "properties": {
                "label": "Plong\u00e9es Autour Du Monde - Jean Bernard Carillet, Olivier Oudon.md",
                "color": "rgb(121.99221577506945, 193.06414017279076, 128.9785683575544)"
            },
            "geometry": {
                "type": "Point",
                "coordinates": [
                    -0.30620272797541487,
                    -0.2711828569543667
                ]
            }
        },
        {
            "type": "Feature",
            "properties": {
                "label": "Encyclop\u00e9die Progressive Ou, Abr\u00e9g\u00e9 Des Sciences, Des Arts Et Des Connaissances Utiles (Tome II) - Mlle M. Forgame.md",
                "color": "rgb(156.03820285231467, 124.3346116106497, 151.98566667266883)"
            },
            "geometry": {
                "type": "Point",
                "coordinates": [
                    -0.45379184360982594,
                    0.026584731149816476
                ]
            }
        },
        {
            "type": "Feature",
            "properties": {
                "label": "Les Voyages D'Ulysse - Mythologie.md",
                "color": "rgb(127.93928247262465, 156.27121945931142, 130.0043464778946)"
            },
            "geometry": {
                "type": "Point",
                "coordinates": [
                    -0.7783660380720393,
                    0.00891868756657503
                ]
            }
        },
        {
            "type": "Feature",
            "properties": {
                "label": "Rap Ta France - Jos\u00e9 Louis Bocquet, Philippe Pierre Adolphe.md",
                "color": "rgb(122.75024634935367, 117.69075136099553, 148.7003624623583)"
            },
            "geometry": {
                "type": "Point",
                "coordinates": [
                    -0.7467188036453117,
                    -0.10749290666758106
                ]
            }
        },
        {
            "type": "Feature",
            "properties": {
                "label": "Dilemmes De Prisonniers Et Strat\u00e9gies Dominantes : La Th\u00e9orie Des Jeux #7 - Fernando Corbal\u00e1n.md",
                "color": "rgb(151.2941871693917, 112.37211851594175, 125.64591839166192)"
            },
            "geometry": {
                "type": "Point",
                "coordinates": [
                    -0.4001059336201073,
                    -0.024105388082687012
                ]
            }
        },
        {
            "type": "Feature",
            "properties": {
                "label": "Vie Priv\u00e9e De Louis Xv   Tome Premier - Unknown.md",
                "color": "rgb(146.72838345636902, 132.91525204503972, 135.0921705798362)"
            },
            "geometry": {
                "type": "Point",
                "coordinates": [
                    -0.7740252925499533,
                    -0.006759975209942268
                ]
            }
        },
        {
            "type": "Feature",
            "properties": {
                "label": "Tout Alice - Lewis Carroll.md",
                "color": "rgb(106.39822263826889, 102.51888064350058, 105.06074561303551)"
            },
            "geometry": {
                "type": "Point",
                "coordinates": [
                    -0.7292517103300349,
                    0.17084111138714236
                ]
            }
        },
        {
            "type": "Feature",
            "properties": {
                "label": "The Smart Thinking Book - Kevin Duncan .md",
                "color": "rgb(94.84650782554084, 104.87180638700225, 126.9462545522843)"
            },
            "geometry": {
                "type": "Point",
                "coordinates": [
                    -0.06794462392682661,
                    0.5585351522330447
                ]
            }
        },
        {
            "type": "Feature",
            "properties": {
                "label": "Devenez Un Grand Orateur Ted   Les 9 Secrets Des Prises De Paroles Les Plus Brillantes - Carmine Gallo.md",
                "color": "rgb(145.60327650619857, 106.33741978016874, 129.5032514873655)"
            },
            "geometry": {
                "type": "Point",
                "coordinates": [
                    -0.3011948871855952,
                    0.07337075923944504
                ]
            }
        },
        {
            "type": "Feature",
            "properties": {
                "label": "Th\u00e9\u00e2tre Complet Tom 2 - William Shakespeare.md",
                "color": "rgb(132.2449443317563, 119.59091756439533, 107.76555585716619)"
            },
            "geometry": {
                "type": "Point",
                "coordinates": [
                    -0.5997726731576861,
                    0.04091998998309969
                ]
            }
        },
        {
            "type": "Feature",
            "properties": {
                "label": "La Lecture Rapide - Tony Buzan.md",
                "color": "rgb(128.88356683271698, 103.84479296680144, 123.28775714062837)"
            },
            "geometry": {
                "type": "Point",
                "coordinates": [
                    -0.5362797554032676,
                    0.3271695040229992
                ]
            }
        },
        {
            "type": "Feature",
            "properties": {
                "label": "La Vie Secr\u00e8te Des Nombres : Les Bizarreries Des Math\u00e9matiques #27 - Joaqu\u00edn Navarro.md",
                "color": "rgb(114.6628725168085, 109.03939038744574, 139.3512094393705)"
            },
            "geometry": {
                "type": "Point",
                "coordinates": [
                    -0.648820329239403,
                    0.06025463358531731
                ]
            }
        },
        {
            "type": "Feature",
            "properties": {
                "label": "Construction 4.0 - Karim N\u2019essaie, Christian Grellier, Edward Woods .md",
                "color": "rgb(104.77808709499082, 100.83031193041295, 110.04717903885113)"
            },
            "geometry": {
                "type": "Point",
                "coordinates": [
                    -0.6083471367963742,
                    0.13840896443071174
                ]
            }
        },
        {
            "type": "Feature",
            "properties": {
                "label": "Tout Le Monde N'a Pas Eu La Chance De Rater Ses \u00e9tudes - Olivier Roland.md",
                "color": "rgb(143.80117604515766, 96.86195828539233, 122.10923634599254)"
            },
            "geometry": {
                "type": "Point",
                "coordinates": [
                    -0.38449011303727687,
                    0.13756437032672125
                ]
            }
        },
        {
            "type": "Feature",
            "properties": {
                "label": "Sur Le R\u00eave - Sigmund Freud.md",
                "color": "rgb(137.27033808782352, 128.44153529163486, 135.31418460413968)"
            },
            "geometry": {
                "type": "Point",
                "coordinates": [
                    -0.6223754853862247,
                    0.14688202117320362
                ]
            }
        },
        {
            "type": "Feature",
            "properties": {
                "label": "Le Royaume Des Animaux 21 : Python Rous - Maurice Burton, Robert Burton .md",
                "color": "rgb(137.16232422647977, 230.48330168397615, 164.00314547006502)"
            },
            "geometry": {
                "type": "Point",
                "coordinates": [
                    -0.8121877281879841,
                    -0.17843611625222713
                ]
            }
        },
        {
            "type": "Feature",
            "properties": {
                "label": "The 4-hour Workweek - Tim Ferris.md",
                "color": "rgb(141.07080681863826, 102.02654748452372, 115.80393744233992)"
            },
            "geometry": {
                "type": "Point",
                "coordinates": [
                    0.16715947403145132,
                    0.11664572902890745
                ]
            }
        },
        {
            "type": "Feature",
            "properties": {
                "label": "Les Onze Lois De La R\u00e9ussite - Anthony Robbins.md",
                "color": "rgb(129.9153861196833, 122.25210222293353, 128.52748063922866)"
            },
            "geometry": {
                "type": "Point",
                "coordinates": [
                    -0.5393313521624286,
                    0.19507452032942685
                ]
            }
        },
        {
            "type": "Feature",
            "properties": {
                "label": "Business   Les Grandes Id\u00e9es Tout Simplement  - Various.md",
                "color": "rgb(120.83122780077431, 90.13960634072419, 130.64532895627906)"
            },
            "geometry": {
                "type": "Point",
                "coordinates": [
                    -0.5056036919127833,
                    0.08879890350126984
                ]
            }
        },
        {
            "type": "Feature",
            "properties": {
                "label": "Le Mythe De La Singularit\u00e9, Faut Il Craindre L\u2019intelligence Artificielle ? - Jean Gabriel Ganascia.md",
                "color": "rgb(113.87399497655557, 95.85972210018491, 96.27993246668143)"
            },
            "geometry": {
                "type": "Point",
                "coordinates": [
                    -0.44673432733191276,
                    0.02651260180942147
                ]
            }
        },
        {
            "type": "Feature",
            "properties": {
                "label": "Voyages Extraordinaires : Les Indes Noires  - Jules Verne .md",
                "color": "rgb(121.01791588019732, 161.6343183114009, 142.1070291337282)"
            },
            "geometry": {
                "type": "Point",
                "coordinates": [
                    -0.7486285210892079,
                    -0.04565467657563294
                ]
            }
        },
        {
            "type": "Feature",
            "properties": {
                "label": "Les Oracles De Nostradamus : Tome 2 - Nostradamus.md",
                "color": "rgb(116.09102974449773, 125.25414391632249, 115.03561675876236)"
            },
            "geometry": {
                "type": "Point",
                "coordinates": [
                    -0.6759788958222271,
                    0.14562779878111096
                ]
            }
        },
        {
            "type": "Feature",
            "properties": {
                "label": "Le Papillon Et La Tornade : Th\u00e9orie Du Chaos Et Changement Climatique #28 - Carlos Madrid.md",
                "color": "rgb(125.25433873158975, 119.08220147325457, 147.47494451342612)"
            },
            "geometry": {
                "type": "Point",
                "coordinates": [
                    -0.5629889293094616,
                    -0.015012801141328446
                ]
            }
        },