{
    "type": "FeatureCollection",
    "features": [
        {
            "type": "Feature",
            "properties": {
                "label": "Create a programming language.md",
                "color": "rgb(81.72801162237695, 104.52573586485978, 114.61265245563895)"
            },
            "geometry": {
                "type": "Point",
                "coordinates": [
                    0.6508793057942482,
                    -0.033687343302957806
                ]
            }
        },
        {
            "type": "Feature",
            "properties": {
                "label": "Programming languages.md",
                "color": "rgb(107.61738931889643, 105.28354233276261, 113.02035868501007)"
            },
            "geometry": {
                "type": "Point",
                "coordinates": [
                    0.6902856678910428,
                    0.028203354473718696
                ]
            }
        },
        {
            "type": "Feature",
            "properties": {
                "label": "Inspectional reading.md",
                "color": "rgb(173.5989661435853, 168.50298514598717, 51.07898678136294)"
            },
            "geometry": {
                "type": "Point",
                "coordinates": [
                    0.5528910057094695,
                    0.6891922768668144
                ]
            }
        },
        {
            "type": "Feature",
            "properties": {
                "label": "Reading philosophy.md",
                "color": "rgb(169.4059374694747, 145.0708169748848, 55.292922873450564)"
            },
            "geometry": {
                "type": "Point",
                "coordinates": [
                    0.3469958917002948,
                    0.6046576041886516
                ]
            }
        },
        {
            "type": "Feature",
            "properties": {
                "label": "Reading imaginary.md",
                "color": "rgb(168.80741400750384, 171.36072849434493, 53.24448504330118)"
            },
            "geometry": {
                "type": "Point",
                "coordinates": [
                    0.4916103303563589,
                    0.7147828790312378
                ]
            }
        },
        {
            "type": "Feature",
            "properties": {
                "label": "Reading technics should differ depending on book type.md",
                "color": "rgb(168.27165192426872, 150.75010053689715, 81.6226890900762)"
            },
            "geometry": {
                "type": "Point",
                "coordinates": [
                    0.6160317362881925,
                    0.8613072840734722
                ]
            }
        },
        {
            "type": "Feature",
            "properties": {
                "label": "Elementary reading.md",
                "color": "rgb(178.90356430772474, 161.73978068871943, 55.45238903108003)"
            },
            "geometry": {
                "type": "Point",
                "coordinates": [
                    0.566059665620273,
                    0.4630779203486827
                ]
            }
        },
        {
            "type": "Feature",
            "properties": {
                "label": "Re-reading books.md",
                "color": "rgb(165.97722672107378, 151.35744177303798, 91.7692603450987)"
            },
            "geometry": {
                "type": "Point",
                "coordinates": [
                    0.6478076524432651,
                    0.7159609561639444
                ]
            }
        },
        {
            "type": "Feature",
            "properties": {
                "label": "Evaluate a book.md",
                "color": "rgb(154.70530458853165, 142.3293831549704, 80.61418902952602)"
            },
            "geometry": {
                "type": "Point",
                "coordinates": [
                    0.4783821065849226,
                    0.7045574988372851
                ]
            }
        },
        {
            "type": "Feature",
            "properties": {
                "label": "Syntopical reading.md",
                "color": "rgb(181.9714494636671, 160.3504241469605, 75.98749460582664)"
            },
            "geometry": {
                "type": "Point",
                "coordinates": [
                    0.42913007702513795,
                    0.546621488007062
                ]
            }
        },
        {
            "type": "Feature",
            "properties": {
                "label": "The four levels of reading.md",
                "color": "rgb(177.03533010287197, 165.05811421711155, 42.546983057803374)"
            },
            "geometry": {
                "type": "Point",
                "coordinates": [
                    0.6176848252096662,
                    0.8724536483229247
                ]
            }
        },
        {
            "type": "Feature",
            "properties": {
                "label": "Reading science and mathematics.md",
                "color": "rgb(174.44753525243863, 152.67617769923027, 68.72151656707685)"
            },
            "geometry": {
                "type": "Point",
                "coordinates": [
                    0.4982197255861298,
                    0.6450517812708235
                ]
            }
        },
        {
            "type": "Feature",
            "properties": {
                "label": "Speed reading.md",
                "color": "rgb(178.02675715569268, 143.73263523329805, 91.4850964100149)"
            },
            "geometry": {
                "type": "Point",
                "coordinates": [
                    0.6808072275276378,
                    0.5805247267998038
                ]
            }
        },
        {
            "type": "Feature",
            "properties": {
                "label": "Selective reading.md",
                "color": "rgb(185.96162932143585, 143.30602495219964, 67.32607820770573)"
            },
            "geometry": {
                "type": "Point",
                "coordinates": [
                    0.6004298373078377,
                    0.6483075603040697
                ]
            }
        },
        {
            "type": "Feature",
            "properties": {
                "label": "Reading history.md",
                "color": "rgb(170.51534082685927, 146.24529662995292, 84.34490442777923)"
            },
            "geometry": {
                "type": "Point",
                "coordinates": [
                    0.5979420457263118,
                    0.48694872353218566
                ]
            }
        },
        {
            "type": "Feature",
            "properties": {
                "label": "Reading biographies.md",
                "color": "rgb(144.02189437575788, 168.62506854653333, 66.86382381812544)"
            },
            "geometry": {
                "type": "Point",
                "coordinates": [
                    0.43333329793980574,
                    0.2914372082657094
                ]
            }
        },
        {
            "type": "Feature",
            "properties": {
                "label": "Reading digests.md",
                "color": "rgb(169.40461615190173, 170.65637226082637, 81.3439781382684)"
            },
            "geometry": {
                "type": "Point",
                "coordinates": [
                    0.48763929389012317,
                    0.7240483434586653
                ]
            }
        },
        {
            "type": "Feature",
            "properties": {
                "label": "Reading news.md",
                "color": "rgb(170.59334931258036, 164.94846650210587, 54.25284214539114)"
            },
            "geometry": {
                "type": "Point",
                "coordinates": [
                    0.6193804363738531,
                    0.37349594758916893
                ]
            }
        },
        {
            "type": "Feature",
            "properties": {
                "label": "Analytical reading.md",
                "color": "rgb(182.64325203058, 161.22613561944536, 38.55912449357463)"
            },
            "geometry": {
                "type": "Point",
                "coordinates": [
                    0.5193535416435171,
                    0.8637609405381911
                ]
            }
        },
        {
            "type": "Feature",
            "properties": {
                "label": "Augmented reality.md",
                "color": "rgb(77.24232863631762, 136.00840848496475, 50.30907240523915)"
            },
            "geometry": {
                "type": "Point",
                "coordinates": [
                    0.5787202786445692,
                    -0.31481273871886717
                ]
            }
        },
        {
            "type": "Feature",
            "properties": {
                "label": "AR devices.md",
                "color": "rgb(50.887370382402, 118.66343552379055, 57.40466624030276)"
            },
            "geometry": {
                "type": "Point",
                "coordinates": [
                    0.6588660844719065,
                    -0.35007662226094705
                ]
            }
        },
        {
            "type": "Feature",
            "properties": {
                "label": "Mixed reality.md",
                "color": "rgb(64.11754151927306, 147.10787482876088, 49.056207268885515)"
            },
            "geometry": {
                "type": "Point",
                "coordinates": [
                    0.5662132174123146,
                    -0.28494810856034025
                ]
            }
        },
        {
            "type": "Feature",
            "properties": {
                "label": "No-code tools for AR.md",
                "color": "rgb(46.522421255272306, 122.98151289146043, 110.01226077163246)"
            },
            "geometry": {
                "type": "Point",
                "coordinates": [
                    0.6365641491324509,
                    -0.31352027267724625
                ]
            }
        },
        {
            "type": "Feature",
            "properties": {
                "label": "Video.md",
                "color": "rgb(93.14364671963469, 140.0465401663867, 161.7720214150736)"
            },
            "geometry": {
                "type": "Point",
                "coordinates": [
                    0.8439801801209174,
                    -0.13131164681585586
                ]
            }
        },
        {
            "type": "Feature",
            "properties": {
                "label": "Premiere Pro.md",
                "color": "rgb(88.05842405602739, 157.60568447750578, 165.57684747856618)"
            },
            "geometry": {
                "type": "Point",
                "coordinates": [
                    0.7875289512208254,
                    -0.3090989226405027
                ]
            }
        },
        {
            "type": "Feature",
            "properties": {
                "label": "Make great videos.md",
                "color": "rgb(81.31642492543037, 142.44604054669568, 157.2427380485716)"
            },
            "geometry": {
                "type": "Point",
                "coordinates": [
                    0.8862358476995108,
                    -0.20372426308019134
                ]
            }
        },
        {
            "type": "Feature",
            "properties": {
                "label": "Hyperinflation.md",
                "color": "rgb(148.38117747141266, 138.60333543528182, 84.5424306467196)"
            },
            "geometry": {
                "type": "Point",
                "coordinates": [
                    0.4875014723137197,
                    -0.40872586399558997
                ]
            }
        },
        {
            "type": "Feature",
            "properties": {
                "label": "Printing more money could create inflation.md",
                "color": "rgb(128.2673766218458, 155.39205899506518, 100.88879099384498)"
            },
            "geometry": {
                "type": "Point",
                "coordinates": [
                    0.6202821478383853,
                    -0.17532990141386848
                ]
            }
        },
        {
            "type": "Feature",
            "properties": {
                "label": "Music theory.md",
                "color": "rgb(141.21252303848223, 146.15889586710327, 161.2711937237438)"
            },
            "geometry": {
                "type": "Point",
                "coordinates": [
                    0.4568204031699749,
                    0.004727994940766035
                ]
            }
        },
        {
            "type": "Feature",
            "properties": {
                "label": "One drop pattern.md",
                "color": "rgb(129.61295334644686, 139.72867519364343, 158.0398219540167)"
            },
            "geometry": {
                "type": "Point",
                "coordinates": [
                    0.6443662552488134,
                    -0.3487546860755715
                ]
            }
        },
        {
            "type": "Feature",
            "properties": {
                "label": "Circle of fifth.md",
                "color": "rgb(132.34231515655623, 133.99749251551603, 140.92889401892594)"
            },
            "geometry": {
                "type": "Point",
                "coordinates": [
                    0.6949518152959779,
                    -0.11027302506657122
                ]
            }
        },
        {
            "type": "Feature",
            "properties": {
                "label": "Harmonic Minor.md",
                "color": "rgb(109.74563962647188, 149.8493837566685, 131.66094056539444)"
            },
            "geometry": {
                "type": "Point",
                "coordinates": [
                    0.548888491820106,
                    -0.2683574172003188
                ]
            }
        },
        {
            "type": "Feature",
            "properties": {
                "label": "Contrapuntal music (in film).md",
                "color": "rgb(157.88377219411336, 138.95884655326213, 125.85219638567433)"
            },
            "geometry": {
                "type": "Point",
                "coordinates": [
                    0.5369862700842154,
                    -0.2547729052095322
                ]
            }
        },
        {
            "type": "Feature",
            "properties": {
                "label": "Chords progressions.md",
                "color": "rgb(124.50689826054635, 138.33134632694956, 149.10336776181842)"
            },
            "geometry": {
                "type": "Point",
                "coordinates": [
                    0.4894139286639226,
                    -0.2585953325352073
                ]
            }
        },
        {
            "type": "Feature",
            "properties": {
                "label": "Freemium.md",
                "color": "rgb(117.3773225383849, 110.47846652536236, 121.60259510102868)"
            },
            "geometry": {
                "type": "Point",
                "coordinates": [
                    0.7837589802656756,
                    -0.3646510663167541
                ]
            }
        },
        {
            "type": "Feature",
            "properties": {
                "label": "Writing on Medium.md",
                "color": "rgb(97.51863730308114, 125.14861867111941, 138.9649652952793)"
            },
            "geometry": {
                "type": "Point",
                "coordinates": [
                    0.7477219666814107,
                    -0.05248757523467798
                ]
            }
        },
        {
            "type": "Feature",
            "properties": {
                "label": "Newsletters.md",
                "color": "rgb(111.55468888397344, 116.01243004578232, 165.89598133894413)"
            },
            "geometry": {
                "type": "Point",
                "coordinates": [
                    0.5906225570661106,
                    -0.28238358421654336
                ]
            }
        },
        {
            "type": "Feature",
            "properties": {
                "label": "Somatosensory.md",
                "color": "rgb(147.95336763161225, 149.15717294121666, 90.34649485529908)"
            },
            "geometry": {
                "type": "Point",
                "coordinates": [
                    0.5429688424996658,
                    -0.19543671664403897
                ]
            }
        },
        {
            "type": "Feature",
            "properties": {
                "label": "Working memory.md",
                "color": "rgb(161.94681031219838, 124.36268583597459, 143.58557346759528)"
            },
            "geometry": {
                "type": "Point",
                "coordinates": [
                    0.8542108135179316,
                    0.19830729723349882
                ]
            }
        },
        {
            "type": "Feature",
            "properties": {
                "label": "Hardware.md",
                "color": "rgb(42.251793235613576, 104.00186512924446, 111.2605006174034)"
            },
            "geometry": {
                "type": "Point",
                "coordinates": [
                    0.5852678564342263,
                    -0.3055299804177006
                ]
            }
        },
        {
            "type": "Feature",
            "properties": {
                "label": "DSP (Digital Signal Processor).md",
                "color": "rgb(63.87313576691956, 122.79457319705456, 91.49396169150532)"
            },
            "geometry": {
                "type": "Point",
                "coordinates": [
                    0.6561599189579597,
                    -0.42631923782797987
                ]
            }
        },
        {
            "type": "Feature",
            "properties": {
                "label": "ALU (Arithmetic Logic Unit).md",
                "color": "rgb(76.69708117436082, 105.65490651151651, 56.871386231562965)"
            },
            "geometry": {
                "type": "Point",
                "coordinates": [
                    0.41314253554191777,
                    -0.3072701867669485
                ]
            }
        },
        {
            "type": "Feature",
            "properties": {
                "label": "Raspberry Pi.md",
                "color": "rgb(34.27464301375721, 92.8681471171344, 75.48968100884954)"
            },
            "geometry": {
                "type": "Point",
                "coordinates": [
                    0.6048183621970329,
                    -0.479019258969328
                ]
            }
        },
        {
            "type": "Feature",
            "properties": {
                "label": "ARM (Advanced RISC Machines).md",
                "color": "rgb(53.593802476254496, 114.57828020483863, 69.35571966027871)"
            },
            "geometry": {
                "type": "Point",
                "coordinates": [
                    0.6381699877472559,
                    -0.48125207136274784
                ]
            }
        },
        {
            "type": "Feature",
            "properties": {
                "label": "RAM (Random-Access Memory).md",
                "color": "rgb(118.37700092242642, 114.18221662454555, 98.85956465342825)"
            },
            "geometry": {
                "type": "Point",
                "coordinates": [
                    0.6794016250302971,
                    -0.15272824873983207
                ]
            }
        },
        {
            "type": "Feature",
            "properties": {
                "label": "Places.md",
                "color": "rgb(144.0978028203205, 108.56001431886486, 151.28441766833586)"
            },
            "geometry": {
                "type": "Point",
                "coordinates": [
                    0.3051324003019535,
                    -0.47312614401027936
                ]
            }
        },
        {
            "type": "Feature",
            "properties": {
                "label": "Third places.md",
                "color": "rgb(145.20167257312235, 136.32945796357134, 183.7161462795338)"
            },
            "geometry": {
                "type": "Point",
                "coordinates": [
                    0.30959386027900404,
                    -0.1881775131511806
                ]
            }
        },
        {
            "type": "Feature",
            "properties": {
                "label": "State controlled saving plans.md",
                "color": "rgb(127.9385654671969, 120.95230438640334, 129.92941521872598)"
            },
            "geometry": {
                "type": "Point",
                "coordinates": [
                    0.19358339101624938,
                    -0.34835919806960275
                ]
            }
        },
        {
            "type": "Feature",
            "properties": {
                "label": "Stock markets.md",
                "color": "rgb(84.07612979406234, 97.62565695011398, 109.42293140471094)"
            },
            "geometry": {
                "type": "Point",
                "coordinates": [
                    0.6241232267201632,
                    -0.16604901601060498
                ]
            }
        },
        {
            "type": "Feature",
            "properties": {
                "label": "Real estate.md",
                "color": "rgb(102.72337490464325, 115.19179250556448, 96.48919370997803)"
            },
            "geometry": {
                "type": "Point",
                "coordinates": [
                    0.5521769259765728,
                    -0.16098825774233316
                ]
            }
        },
        {
            "type": "Feature",
            "properties": {
                "label": "Old books.md",
                "color": "rgb(107.39721553092802, 117.9105193680418, 98.79236324440521)"
            },
            "geometry": {
                "type": "Point",
                "coordinates": [
                    0.12856844892904531,
                    0.22830527838365255
                ]
            }
        },
        {
            "type": "Feature",
            "properties": {
                "label": "Cryptocurrencies.md",
                "color": "rgb(55.82213629469314, 115.13223394159998, 110.50229431841926)"
            },
            "geometry": {
                "type": "Point",
                "coordinates": [
                    0.6061605293879317,
                    -0.3138577188397028
                ]
            }
        },
        {
            "type": "Feature",
            "properties": {
                "label": "Exchange Traded Funds (ETF).md",
                "color": "rgb(86.80852677344748, 98.28445150732406, 96.98263330694735)"
            },
            "geometry": {
                "type": "Point",
                "coordinates": [
                    0.5197782408356886,
                    -0.3751696537363584
                ]
            }
        },
        {
            "type": "Feature",
            "properties": {
                "label": "Saving habit.md",
                "color": "rgb(131.1256400681633, 149.1159633936694, 155.91183125599804)"
            },
            "geometry": {
                "type": "Point",
                "coordinates": [
                    0.768847835731829,
                    -0.09512869704931182
                ]
            }
        },
        {
            "type": "Feature",
            "properties": {
                "label": "Emergency fund.md",
                "color": "rgb(119.77317223265356, 137.61482772267016, 120.44633584853321)"
            },
            "geometry": {
                "type": "Point",
                "coordinates": [
                    0.7541477179997536,
                    -0.18755402554599368
                ]
            }
        },
        {
            "type": "Feature",
            "properties": {
                "label": "My investment strategy.md",
                "color": "rgb(118.00815797303173, 126.91309698541903, 126.49867232845843)"
            },
            "geometry": {
                "type": "Point",
                "coordinates": [
                    0.6672050294329649,
                    -0.16258046084004574
                ]
            }
        },
        {
            "type": "Feature",
            "properties": {
                "label": "Personal finances.md",
                "color": "rgb(133.5228466694284, 126.3076570188187, 153.4173829761924)"
            },
            "geometry": {
                "type": "Point",
                "coordinates": [
                    0.682148895781282,
                    -0.14770559115664889
                ]
            }
        },
        {
            "type": "Feature",
            "properties": {
                "label": "AudioSet dataset.md",
                "color": "rgb(70.89877955400311, 113.67156553315981, 137.30860072342816)"
            },
            "geometry": {
                "type": "Point",
                "coordinates": [
                    0.4002879573012974,
                    -0.3737310273156027
                ]
            }
        },
        {
            "type": "Feature",
            "properties": {
                "label": "Sound classification.md",
                "color": "rgb(77.83511401421254, 112.31335519905456, 112.15147226684752)"
            },
            "geometry": {
                "type": "Point",
                "coordinates": [
                    0.632223776769829,
                    -0.33785041777599345
                ]
            }
        },
        {
            "type": "Feature",
            "properties": {
                "label": "Mel Spectogram.md",
                "color": "rgb(115.56216998136918, 146.83301602777465, 130.91751884476233)"
            },
            "geometry": {
                "type": "Point",
                "coordinates": [
                    0.5242099150810706,
                    -0.29088568906243634
                ]
            }
        },
        {
            "type": "Feature",
            "properties": {
                "label": "Welcome in my mind \ud83e\udde0.md",
                "color": "rgb(93.60244332362191, 133.98749225782515, 171.04845827579328)"
            },
            "geometry": {
                "type": "Point",
                "coordinates": [
                    0.4407199163649821,
                    -0.26010246859760744
                ]
            }
        },
        {
            "type": "Feature",
            "properties": {
                "label": "Soundproofing.md",
                "color": "rgb(118.22875478483886, 143.4348440894144, 155.6174696234714)"
            },
            "geometry": {
                "type": "Point",
                "coordinates": [
                    0.6872961868335157,
                    -0.2648257707696402
                ]
            }
        },
        {
            "type": "Feature",
            "properties": {
                "label": "The zettelkasten method and how to take smart notes.md",
                "color": "rgb(119.48260605196148, 91.98629788118542, 256.0)"
            },
            "geometry": {
                "type": "Point",
                "coordinates": [
                    0.8084443816902663,
                    0.4520938787780655
                ]
            }
        },
        {
            "type": "Feature",
            "properties": {
                "label": "Fleeting notes to capture thoughts.md",
                "color": "rgb(126.5833378965249, 97.98768144343043, 243.9136631697236)"
            },
            "geometry": {
                "type": "Point",
                "coordinates": [
                    0.7857384326731763,
                    0.2812178569252441
                ]
            }
        },
        {
            "type": "Feature",
            "properties": {
                "label": "Zettelkasten for musicians.md",
                "color": "rgb(103.52864150572914, 103.16096019557027, 252.51876730900835)"
            },
            "geometry": {
                "type": "Point",
                "coordinates": [
                    0.7706075646660884,
                    0.2289072645424188
                ]
            }
        },
        {
            "type": "Feature",
            "properties": {
                "label": "Open-closed principle makes Zettelkasten closer to its original design.md",
                "color": "rgb(116.53370235926499, 119.36427180557335, 192.0856472868549)"
            },
            "geometry": {
                "type": "Point",
                "coordinates": [
                    0.7340813138213141,
                    0.14010223582678571
                ]
            }
        },
        {
            "type": "Feature",
            "properties": {
                "label": "Litterature note to quote and reference content.md",
                "color": "rgb(151.34690663256987, 103.24574869761021, 218.09529979061395)"
            },
            "geometry": {
                "type": "Point",
                "coordinates": [
                    0.5796930648322213,
                    0.5032406948223515
                ]
            }
        },
        {
            "type": "Feature",
            "properties": {
                "label": "Writing is the only thing that count.md",
                "color": "rgb(160.7491975113546, 114.08206860154397, 216.08038009141524)"
            },
            "geometry": {
                "type": "Point",
                "coordinates": [
                    0.889023937083673,
                    0.6753054024566083
                ]
            }
        },
        {
            "type": "Feature",
            "properties": {
                "label": "Permanent notes to link and develop.md",
                "color": "rgb(125.82079158148835, 110.0996583356128, 235.14279027320572)"
            },
            "geometry": {
                "type": "Point",
                "coordinates": [
                    0.7404307634659436,
                    0.3962790190706505
                ]
            }
        },
        {
            "type": "Feature",
            "properties": {
                "label": "202107062037 Critics need rhetoric.md",
                "color": "rgb(184.24446378066247, 152.95658999691847, 38.97932329498998)"
            },
            "geometry": {
                "type": "Point",
                "coordinates": [
                    0.47608050493631154,
                    0.652692679867597
                ]
            }
        },
        {
            "type": "Feature",
            "properties": {
                "label": "202107071942 Books never solve practical problems, action does.md",
                "color": "rgb(158.09812763932584, 146.77568164421106, 50.232355461270416)"
            },
            "geometry": {
                "type": "Point",
                "coordinates": [
                    0.4138535245470965,
                    0.8803490553662816
                ]
            }
        },
        {
            "type": "Feature",
            "properties": {
                "label": "202106122210 Expert can rely on their intuition.md",
                "color": "rgb(138.07131550449438, 124.39198160115508, 178.01970548214058)"
            },
            "geometry": {
                "type": "Point",
                "coordinates": [
                    0.8016324214418435,
                    0.44567431164841564
                ]
            }
        },
        {
            "type": "Feature",
            "properties": {
                "label": "202107032023 Don't be an expert, make unexpected connections instead.md",
                "color": "rgb(122.81109113056947, 112.81709843599549, 173.04884309458194)"
            },
            "geometry": {
                "type": "Point",
                "coordinates": [
                    0.9399025123024991,
                    0.3666672870951252
                ]
            }
        },
        {
            "type": "Feature",
            "properties": {
                "label": "202106201717 Avoid immobility by starting projects as drafts.md",
                "color": "rgb(144.74966938179165, 116.00706412128235, 191.66685554450882)"
            },
            "geometry": {
                "type": "Point",
                "coordinates": [
                    0.9827410385936353,
                    0.3292785161735886
                ]
            }
        },
        {
            "type": "Feature",
            "properties": {
                "label": "202107062101 Don't read with a dictionnary.md",
                "color": "rgb(188.79938807802924, 133.99527441900872, 111.27945483334503)"
            },
            "geometry": {
                "type": "Point",
                "coordinates": [
                    0.4306218852261236,
                    0.4321970177709857
                ]
            }
        },
        {
            "type": "Feature",
            "properties": {
                "label": "202106131144 Learning has multiple phases.md",
                "color": "rgb(171.8239236161167, 108.46336803315862, 181.05523092697828)"
            },
            "geometry": {
                "type": "Point",
                "coordinates": [
                    0.809881584064277,
                    0.50347988459133
                ]
            }
        },
        {
            "type": "Feature",
            "properties": {
                "label": "202107061345 Interpretative reading.md",
                "color": "rgb(178.88566489252415, 168.21533592518693, 50.37216652133888)"
            },
            "geometry": {
                "type": "Point",
                "coordinates": [
                    0.41922206112632865,
                    0.799448745036749
                ]
            }
        },
        {
            "type": "Feature",
            "properties": {
                "label": "202106152233 Thinking about solutions to previous problem helps finding creative solutions.md",
                "color": "rgb(144.32186624092807, 132.52094489805623, 142.1513510743813)"
            },
            "geometry": {
                "type": "Point",
                "coordinates": [
                    0.6927976782498152,
                    0.2840573320143275
                ]
            }
        },
        {
            "type": "Feature",
            "properties": {
                "label": "202107071935 The two types of practical books.md",
                "color": "rgb(161.39063461572698, 142.631086758252, 48.413774041330086)"
            },
            "geometry": {
                "type": "Point",
                "coordinates": [
                    0.41469174997748837,
                    0.8350134709666374
                ]
            }
        },
        {
            "type": "Feature",
            "properties": {
                "label": "202109222330 Is Thus Spake Zarathoustra has any historical fundements?.md",
                "color": "rgb(138.2062029074387, 163.95427748560675, 132.60240114254464)"
            },
            "geometry": {
                "type": "Point",
                "coordinates": [
                    0.34736954475132387,
                    0.0699755826826062
                ]
            }
        },
        {
            "type": "Feature",
            "properties": {
                "label": "202106172137 Writing a lot trigger the large number theory on finding great topics.md",
                "color": "rgb(144.6205211288969, 116.15447906529583, 210.8576776555779)"
            },
            "geometry": {
                "type": "Point",
                "coordinates": [
                    0.6781827480554194,
                    0.5300929091602624
                ]
            }
        },
        {
            "type": "Feature",
            "properties": {
                "label": "202106122212 Better taking note by hand.md",
                "color": "rgb(143.08655423984357, 111.40456618224266, 217.4237469763532)"
            },
            "geometry": {
                "type": "Point",
                "coordinates": [
                    0.794520638045211,
                    0.6106526386227575
                ]
            }
        },
        {
            "type": "Feature",
            "properties": {
                "label": "202107062109 Don't use extrinsic aid synchronously.md",
                "color": "rgb(171.02935255273619, 166.4458796054014, 57.95364056164158)"
            },
            "geometry": {
                "type": "Point",
                "coordinates": [
                    0.45278499443733594,
                    0.8570073107364018
                ]
            }
        },
        {
            "type": "Feature",
            "properties": {
                "label": "202107062046 Book completeness as an indiscutable argument.md",
                "color": "rgb(155.84748787135422, 144.87652063019084, 66.72416343182176)"
            },
            "geometry": {
                "type": "Point",
                "coordinates": [
                    0.3309003009060945,
                    0.559732858166209
                ]
            }
        },
        {
            "type": "Feature",
            "properties": {
                "label": "202106270022 Teaching require empathy.md",
                "color": "rgb(169.09963515501607, 140.53762888930848, 55.61605021718263)"
            },
            "geometry": {
                "type": "Point",
                "coordinates": [
                    0.513246661528681,
                    0.46801396783324406
                ]
            }
        },
        {
            "type": "Feature",
            "properties": {
                "label": "202106290039 Don't stop on unknown references when reading.md",
                "color": "rgb(176.32512784690903, 141.37391333851434, 124.65116068968406)"
            },
            "geometry": {
                "type": "Point",
                "coordinates": [
                    0.5215765236674771,
                    0.7445835121199714
                ]
            }
        },
        {
            "type": "Feature",
            "properties": {
                "label": "202106270039 Best collectors are artists.md",
                "color": "rgb(124.3246457584288, 131.65994892116106, 191.94146808865983)"
            },
            "geometry": {
                "type": "Point",
                "coordinates": [
                    0.700174398114908,
                    0.009454943038350863
                ]
            }
        },
        {
            "type": "Feature",
            "properties": {
                "label": "202107072126 Imaginary litterature is harder to read.md",
                "color": "rgb(156.50181234379312, 168.88594474553287, 57.516037609868505)"
            },
            "geometry": {
                "type": "Point",
                "coordinates": [
                    0.34823171813881404,
                    0.6387355311080719
                ]
            }
        },
        {
            "type": "Feature",
            "properties": {
                "label": "202106122322 Remembering is bringing back memory to conscious mind.md",
                "color": "rgb(155.83122617513465, 124.05526663913602, 178.39988585048653)"
            },
            "geometry": {
                "type": "Point",
                "coordinates": [
                    0.9154357087695972,
                    0.41476578426770916
                ]
            }
        },
        {
            "type": "Feature",
            "properties": {
                "label": "202106122339 Don't worry about slipbox's completeness.md",
                "color": "rgb(137.8547541753119, 127.8523927383347, 233.06244673839365)"
            },
            "geometry": {
                "type": "Point",
                "coordinates": [
                    0.7325498269953183,
                    0.44073825752586593
                ]
            }
        },
        {
            "type": "Feature",
            "properties": {
                "label": "202107032032 Focus is for executing, openess is for creativity.md",
                "color": "rgb(156.23369639506393, 125.13636277224542, 153.89594099316042)"
            },
            "geometry": {
                "type": "Point",
                "coordinates": [
                    0.9741874352414034,
                    0.2038559049436285
                ]
            }
        },
        {
            "type": "Feature",
            "properties": {
                "label": "202106131132 Litterature notes helps comparing different authors ideas.md",
                "color": "rgb(172.1889167619824, 119.25842019291909, 168.51340510736742)"
            },
            "geometry": {
                "type": "Point",
                "coordinates": [
                    0.5587051435407011,
                    0.5576757001753646
                ]
            }
        },
        {
            "type": "Feature",
            "properties": {
                "label": "202106152303 Laxism is a threat to creativity.md",
                "color": "rgb(144.3357093236603, 126.84637362551344, 176.2121722248802)"
            },
            "geometry": {
                "type": "Point",
                "coordinates": [
                    0.763875687819757,
                    0.24641982813143473
                ]
            }
        },
        {
            "type": "Feature",
            "properties": {
                "label": "202107272301 Our mental growth don't have limit.md",
                "color": "rgb(150.38534395093382, 161.36525130508977, 101.21896959565582)"
            },
            "geometry": {
                "type": "Point",
                "coordinates": [
                    0.5186543569974902,
                    0.3845488738403992
                ]
            }
        },
        {
            "type": "Feature",
            "properties": {
                "label": "~ What are litterature notes?.md",
                "color": "rgb(160.86745319365474, 113.13966869439857, 207.08294163649228)"
            },
            "geometry": {
                "type": "Point",
                "coordinates": [
                    0.5123655625454574,
                    0.3961644293592137
                ]
            }
        },
        {
            "type": "Feature",
            "properties": {
                "label": "202106122307 Reading with a pen in hand is a way to test our understanding.md",
                "color": "rgb(174.09012722801236, 126.35420203864263, 146.15447872308468)"
            },
            "geometry": {
                "type": "Point",
                "coordinates": [
                    0.8401350629027012,
                    0.8098459634155538
                ]
            }
        },
        {
            "type": "Feature",
            "properties": {
                "label": "202106122336 Understanding improve strenght retrieval.md",
                "color": "rgb(180.88828043260736, 112.68601719021277, 149.68923703658967)"
            },
            "geometry": {
                "type": "Point",
                "coordinates": [
                    0.7831645178898501,
                    0.591093555901835
                ]
            }
        },
        {
            "type": "Feature",
            "properties": {
                "label": "202106270036 Don't search for good taste, search for pleasant things.md",
                "color": "rgb(154.36556036838476, 145.29805216400243, 118.36611633046505)"
            },
            "geometry": {
                "type": "Point",
                "coordinates": [
                    0.549057444978741,
                    -0.12294708999825064
                ]
            }
        },
        {
            "type": "Feature",
            "properties": {
                "label": "202106122329 Multiplying notes connections free us from unexpected cues.md",
                "color": "rgb(148.77790110524518, 115.64583467904811, 208.1987930038639)"
            },
            "geometry": {
                "type": "Point",
                "coordinates": [
                    0.6931578430116428,
                    0.33824283254572496
                ]
            }
        },
        {
            "type": "Feature",
            "properties": {
                "label": "202106270049 Collectors should have an antilibrary.md",
                "color": "rgb(127.99355320394628, 166.21976886806993, 131.9165087524221)"
            },
            "geometry": {
                "type": "Point",
                "coordinates": [
                    0.3280112196904344,
                    0.16797781319946967
                ]
            }
        },
        {
            "type": "Feature",
            "properties": {
                "label": "202106201723 Learning shouldn't be linear but graph oriented.md",
                "color": "rgb(120.93804242207038, 104.83914813792957, 183.78383443025277)"
            },
            "geometry": {
                "type": "Point",
                "coordinates": [
                    0.8156365522745039,
                    0.27831208524095685
                ]
            }
        },
        {
            "type": "Feature",
            "properties": {
                "label": "202107072122 Be careful about practical book's propaganda.md",
                "color": "rgb(170.8472324819384, 149.7507997473585, 41.71832839060838)"
            },
            "geometry": {
                "type": "Point",
                "coordinates": [
                    0.45597082723128357,
                    0.6042716889205245
                ]
            }
        },
        {
            "type": "Feature",
            "properties": {
                "label": "202107071931 Analytical reading apply on non-fiction.md",
                "color": "rgb(169.36886191390485, 170.91254888678668, 57.5304823701961)"
            },
            "geometry": {
                "type": "Point",
                "coordinates": [
                    0.3539922484320199,
                    0.8310497043782872
                ]
            }
        },
        {
            "type": "Feature",
            "properties": {
                "label": "202106131120 Index notes like a writter.md",
                "color": "rgb(143.84425952388304, 117.56856229815845, 208.02540938330083)"
            },
            "geometry": {
                "type": "Point",
                "coordinates": [
                    0.7854890248276023,
                    0.4307365158595697
                ]
            }
        },
        {
            "type": "Feature",
            "properties": {
                "label": "202106131155 Paradigm shifts comes from little steps toward a direction.md",
                "color": "rgb(155.60216038897278, 99.86836947263045, 150.84251713013197)"
            },
            "geometry": {
                "type": "Point",
                "coordinates": [
                    0.7691181090541429,
                    0.13277853085483587
                ]
            }
        },
        {
            "type": "Feature",
            "properties": {
                "label": "202106152243 Creativity and thinking better flourish under restrictions.md",
                "color": "rgb(142.94582811649767, 122.96034636008761, 164.31788384488277)"
            },
            "geometry": {
                "type": "Point",
                "coordinates": [
                    0.7585372472929274,
                    0.20556630300819265
                ]
            }
        },
        {
            "type": "Feature",
            "properties": {
                "label": "202106122248 Storing notes in our slipbox is investing in ourself.md",
                "color": "rgb(136.48496572465058, 99.66078347585214, 240.91116739760156)"
            },
            "geometry": {
                "type": "Point",
                "coordinates": [
                    0.8421441723604297,
                    0.4989847011660216
                ]
            }
        },
        {
            "type": "Feature",
            "properties": {
                "label": "202106122343 The slipbox is a tool to think in, not about.md",
                "color": "rgb(135.87050718332415, 125.90590720930139, 211.50151468809008)"
            },
            "geometry": {
                "type": "Point",
                "coordinates": [
                    0.7095035946708738,
                    0.3427500204578327
                ]
            }
        },
        {
            "type": "Feature",
            "properties": {
                "label": "202106152240 Solutions are just trade offs and can't be perfect.md",
                "color": "rgb(137.17502125471395, 108.5642003376536, 165.24987548232164)"
            },
            "geometry": {
                "type": "Point",
                "coordinates": [
                    0.7770911230055116,
                    0.3413599373056408
                ]
            }
        },
        {
            "type": "Feature",
            "properties": {
                "label": "202106270032 Aided and unaided learning.md",
                "color": "rgb(161.0276215124249, 131.4628221380054, 80.16440833167982)"
            },
            "geometry": {
                "type": "Point",
                "coordinates": [
                    0.621757014490726,
                    0.3554032252659431
                ]
            }
        },
        {
            "type": "Feature",
            "properties": {
                "label": "202107032150 Questioning a book to read more actively.md",
                "color": "rgb(173.63069989932947, 159.46412158152862, 51.67495053832188)"
            },
            "geometry": {
                "type": "Point",
                "coordinates": [
                    0.39174016861606237,
                    0.5845528530191775
                ]
            }
        },
        {
            "type": "Feature",
            "properties": {
                "label": "202107061349 Criticizing a book is a reader obligation toward the author.md",
                "color": "rgb(179.3505786581352, 154.8516726431608, 36.171315526526925)"
            },
            "geometry": {
                "type": "Point",
                "coordinates": [
                    0.455972913226374,
                    0.7676182553208256
                ]
            }
        },
        {
            "type": "Feature",
            "properties": {
                "label": "202107052315 Grasp author's key sentences and arguments in a book.md",
                "color": "rgb(186.24932426333217, 135.06320242939685, 84.95065362374834)"
            },
            "geometry": {
                "type": "Point",
                "coordinates": [
                    0.4916410707080189,
                    0.4371621252926219
                ]
            }
        },
        {
            "type": "Feature",
            "properties": {
                "label": "202106122315 Reading without writing isn't learning.md",
                "color": "rgb(177.95768644014117, 113.21052681778053, 152.02073625918104)"
            },
            "geometry": {
                "type": "Point",
                "coordinates": [
                    0.8926089899722149,
                    0.7212388961048816
                ]
            }
        },
        {
            "type": "Feature",
            "properties": {
                "label": "202106270021 The three kinds of reading.md",
                "color": "rgb(179.383222494504, 158.25358755857798, 35.547416748846246)"
            },
            "geometry": {
                "type": "Point",
                "coordinates": [
                    0.6133829969924659,
                    0.7688362839885536
                ]
            }
        },
        {
            "type": "Feature",
            "properties": {
                "label": "202106131114 Note connections helps find patterns accross non related subjects.md",
                "color": "rgb(143.48255215008462, 123.64201081902465, 197.2202687477694)"
            },
            "geometry": {
                "type": "Point",
                "coordinates": [
                    0.6886091508768301,
                    0.3386278349195401
                ]
            }
        },
        {
            "type": "Feature",
            "properties": {
                "label": "202107052256 Find the important keywords in a book help analysis.md",
                "color": "rgb(197.29741542409283, 139.9837664766586, 60.211125108420774)"
            },
            "geometry": {
                "type": "Point",
                "coordinates": [
                    0.5830936640662013,
                    0.5232116941355254
                ]
            }
        },
        {
            "type": "Feature",
            "properties": {
                "label": "202106152224 Finding creative and functional solutions require abstraction.md",
                "color": "rgb(152.985318661179, 101.15828474659526, 191.50176166125686)"
            },
            "geometry": {
                "type": "Point",
                "coordinates": [
                    0.8038326614765975,
                    0.4725753448824848
                ]
            }
        },
        {
            "type": "Feature",
            "properties": {
                "label": "202107062058 Read with exigence.md",
                "color": "rgb(168.01244769983225, 146.7708555593492, 66.84026001456964)"
            },
            "geometry": {
                "type": "Point",
                "coordinates": [
                    0.5824593517148204,
                    0.829139089717724
                ]
            }
        },
        {
            "type": "Feature",
            "properties": {
                "label": "202106152315 Zettelkasten make the act of choosing topic seamless.md",
                "color": "rgb(126.02548212078558, 94.78633230167813, 234.73898270729995)"
            },
            "geometry": {
                "type": "Point",
                "coordinates": [
                    0.8173075477731992,
                    0.2967702169744512
                ]
            }
        },
        {
            "type": "Feature",
            "properties": {
                "label": "202106122321 Forgetting is active inhibition.md",
                "color": "rgb(151.66085616771642, 141.69280518644254, 179.21108830973927)"
            },
            "geometry": {
                "type": "Point",
                "coordinates": [
                    0.7996725693495561,
                    0.29531830176819907
                ]
            }
        },
        {
            "type": "Feature",
            "properties": {
                "label": "202106122246 Smart notes are about thinking beyound actual context.md",
                "color": "rgb(146.36373571403067, 109.52829774738694, 235.16502529155358)"
            },
            "geometry": {
                "type": "Point",
                "coordinates": [
                    0.7398405569523518,
                    0.6747307675938554
                ]
            }
        },
        {
            "type": "Feature",
            "properties": {
                "label": "202106172158 Finding unheard ideas require open-mindness.md",
                "color": "rgb(139.9586167774167, 106.91034120002061, 222.09483259638182)"
            },
            "geometry": {
                "type": "Point",
                "coordinates": [
                    0.7959539452904485,
                    0.4889975008913301
                ]
            }
        },
        {
            "type": "Feature",
            "properties": {
                "label": "202106152227 Knowing failures helps as much as knowing successes.md",
                "color": "rgb(145.22385721626154, 116.10570391693996, 186.2810775604053)"
            },
            "geometry": {
                "type": "Point",
                "coordinates": [
                    0.8660227156076676,
                    0.4795558454209304
                ]
            }
        },
        {
            "type": "Feature",
            "properties": {
                "label": "202107272232 Zettelkasten and digital gardening is syntopical writing.md",
                "color": "rgb(144.48771698805723, 118.81145473389967, 181.69986438444468)"
            },
            "geometry": {
                "type": "Point",
                "coordinates": [
                    0.6384174063053569,
                    0.4899854607156722
                ]
            }
        },
        {
            "type": "Feature",
            "properties": {
                "label": "202106242157 There's various level of active reading.md",
                "color": "rgb(168.7957683812943, 159.89424098044677, 50.64909371231602)"
            },
            "geometry": {
                "type": "Point",
                "coordinates": [
                    0.6715145781586093,
                    0.746379097918828
                ]
            }
        },
        {
            "type": "Feature",
            "properties": {
                "label": "202106122221 The slipbox should be agnostic.md",
                "color": "rgb(142.96369841775947, 116.64120626715831, 220.10123733806836)"
            },
            "geometry": {
                "type": "Point",
                "coordinates": [
                    0.7401370185650282,
                    0.4655114373253465
                ]
            }
        },
        {
            "type": "Feature",
            "properties": {
                "label": "202106122244 Reformulating ideas enlarge our set of thinking tools.md",
                "color": "rgb(171.06220397080955, 105.51765051145055, 195.12329871535843)"
            },
            "geometry": {
                "type": "Point",
                "coordinates": [
                    0.9523169855759079,
                    0.683630049788908
                ]
            }
        },
        {
            "type": "Feature",
            "properties": {
                "label": "202107272303 Geniuses characteristics.md",
                "color": "rgb(167.68856738458186, 130.07621689437997, 77.98468944734711)"
            },
            "geometry": {
                "type": "Point",
                "coordinates": [
                    0.5076171366052297,
                    0.6898496829335855
                ]
            }
        },
        {
            "type": "Feature",
            "properties": {
                "label": "Transistors.md",
                "color": "rgb(99.65790731499565, 128.034249709595, 70.90603141887505)"
            },
            "geometry": {
                "type": "Point",
                "coordinates": [
                    0.7834218919684001,
                    -0.25744165452627765
                ]
            }
        },
        {
            "type": "Feature",
            "properties": {
                "label": "Electronics.md",
                "color": "rgb(66.44243703375935, 132.2217143701387, 126.46349016119075)"
            },
            "geometry": {
                "type": "Point",
                "coordinates": [
                    0.726208056224281,
                    -0.28828261426203405
                ]
            }
        },
        {
            "type": "Feature",
            "properties": {
                "label": "Logic gates.md",
                "color": "rgb(94.32350502278479, 123.40325595211534, 60.28125170408053)"
            },
            "geometry": {
                "type": "Point",
                "coordinates": [
                    0.804423937676787,
                    -0.2159731351243262
                ]
            }
        },
        {
            "type": "Feature",
            "properties": {
                "label": "Wiring audio cables.md",
                "color": "rgb(88.85920839812752, 153.2085923581588, 148.07046152104252)"
            },
            "geometry": {
                "type": "Point",
                "coordinates": [
                    0.40069963610546083,
                    -0.36753061647564594
                ]
            }
        },
        {
            "type": "Feature",
            "properties": {
                "label": "Nixie tubes.md",
                "color": "rgb(78.53607300328835, 147.14771804198827, 101.67328484338947)"
            },
            "geometry": {
                "type": "Point",
                "coordinates": [
                    0.5268631613221756,
                    -0.39355015023211515
                ]
            }
        },
        {
            "type": "Feature",
            "properties": {
                "label": "Universaly complete set.md",
                "color": "rgb(109.81563023633394, 127.83187374850425, 74.48499893526434)"
            },
            "geometry": {
                "type": "Point",
                "coordinates": [
                    0.6839295073712071,
                    -0.18750678318214045
                ]
            }
        },
        {
            "type": "Feature",
            "properties": {
                "label": "Removable soundproofed studios.md",
                "color": "rgb(104.56297693968895, 140.98755752599243, 165.90380906911918)"
            },
            "geometry": {
                "type": "Point",
                "coordinates": [
                    0.8155494506515971,
                    -0.32469829163863756
                ]
            }
        },
        {
            "type": "Feature",
            "properties": {
                "label": "Arranging studios in a building.md",
                "color": "rgb(102.0595340700412, 150.81916943327144, 157.22437464575742)"
            },
            "geometry": {
                "type": "Point",
                "coordinates": [
                    0.82139168021612,
                    -0.22415286422697553
                ]
            }
        },
        {
            "type": "Feature",
            "properties": {
                "label": "Preamp.md",
                "color": "rgb(78.88329207797827, 145.9203496675085, 102.13823441417684)"
            },
            "geometry": {
                "type": "Point",
                "coordinates": [
                    0.16660139128482254,
                    -0.5626408744809105
                ]
            }
        },
        {
            "type": "Feature",
            "properties": {
                "label": "Compressor.md",
                "color": "rgb(100.18962017964296, 159.00291614288182, 107.54062105778297)"
            },
            "geometry": {
                "type": "Point",
                "coordinates": [
                    0.6621498286889029,
                    -0.3814498542181598
                ]
            }
        },
        {
            "type": "Feature",
            "properties": {
                "label": "Monitors.md",
                "color": "rgb(100.82837231582596, 153.86121737064775, 113.04481457291165)"
            },
            "geometry": {
                "type": "Point",
                "coordinates": [
                    0.744718526866378,
                    -0.22031714004319228
                ]
            }
        },
        {
            "type": "Feature",
            "properties": {
                "label": "Distortion.md",
                "color": "rgb(96.64453735105198, 148.4915282663802, 116.96720032535481)"
            },
            "geometry": {
                "type": "Point",
                "coordinates": [
                    0.620861502121686,
                    -0.4069147810879041
                ]
            }
        },
        {
            "type": "Feature",
            "properties": {
                "label": "Microphones.md",
                "color": "rgb(90.5414097313488, 152.5033220605453, 136.07436359453183)"
            },
            "geometry": {
                "type": "Point",
                "coordinates": [
                    0.5920642465880455,
                    -0.37392138416764503
                ]
            }
        },
        {
            "type": "Feature",
            "properties": {
                "label": "Audio interface.md",
                "color": "rgb(65.94343531406888, 136.15282378814246, 104.49247868327885)"
            },
            "geometry": {
                "type": "Point",
                "coordinates": [
                    0.6643816863617596,
                    -0.36829048882886567
                ]
            }
        },
        {
            "type": "Feature",
            "properties": {
                "label": "Top of the line studio gear configurations.md",
                "color": "rgb(95.99709479260468, 150.43874157218, 137.5369413955909)"
            },
            "geometry": {
                "type": "Point",
                "coordinates": [
                    0.740378505471706,
                    -0.3713233066088075
                ]
            }
        },
        {
            "type": "Feature",
            "properties": {
                "label": "Books and Binders.md",
                "color": "rgb(73.1671458122481, 114.36890438183462, 154.23482148967622)"
            },
            "geometry": {
                "type": "Point",
                "coordinates": [
                    0.11360275773092993,
                    0.14690399569575832
                ]
            }
        },
        {
            "type": "Feature",
            "properties": {
                "label": "A brief computer history.md",
                "color": "rgb(90.61829995038039, 104.3956271518857, 87.6870702586739)"
            },
            "geometry": {
                "type": "Point",
                "coordinates": [
                    0.5810940365154493,
                    -0.13705959429802553
                ]
            }
        },
        {
            "type": "Feature",
            "properties": {
                "label": "SOLID.md",
                "color": "rgb(113.33810269368057, 114.29340304473777, 93.97949664704325)"
            },
            "geometry": {
                "type": "Point",
                "coordinates": [
                    0.6540494481302914,
                    -0.1549382155593316
                ]
            }
        },
        {
            "type": "Feature",
            "properties": {
                "label": "Turing completeness.md",
                "color": "rgb(114.64779764961713, 105.79128480786926, 62.26089075640559)"
            },
            "geometry": {
                "type": "Point",
                "coordinates": [
                    0.7563523644485733,
                    -0.1322124000588707
                ]
            }
        },
        {
            "type": "Feature",
            "properties": {
                "label": "Oriented Object Programming.md",
                "color": "rgb(105.01165129034585, 122.37524336166253, 65.33079712002726)"
            },
            "geometry": {
                "type": "Point",
                "coordinates": [
                    0.4962703529364569,
                    -0.18308918918528858
                ]
            }
        },
        {
            "type": "Feature",
            "properties": {
                "label": "Memex.md",
                "color": "rgb(122.05425165623703, 132.75184087428988, 133.21893445350727)"
            },
            "geometry": {
                "type": "Point",
                "coordinates": [
                    0.4968004957427236,
                    0.060896041851036635
                ]
            }
        },
        {
            "type": "Feature",
            "properties": {
                "label": "202106122320 Differences between Slipbox and Second-brain?.md",
                "color": "rgb(131.92677797112916, 130.13257319790003, 188.7445879739483)"
            },
            "geometry": {
                "type": "Point",
                "coordinates": [
                    0.6959527281687892,
                    0.07246962150305093
                ]
            }
        },
        {
            "type": "Feature",
            "properties": {
                "label": "202109222326 Thoughts fragment.md",
                "color": "rgb(158.1461235153811, 147.9556712801396, 115.85268212676615)"
            },
            "geometry": {
                "type": "Point",
                "coordinates": [
                    0.37316993931306175,
                    0.45843886899051833
                ]
            }
        },
        {
            "type": "Feature",
            "properties": {
                "label": "202106152307 Restrict time on tasks to focus on the real value.md",
                "color": "rgb(158.66721670628502, 105.92740873912496, 148.58939507648702)"
            },
            "geometry": {
                "type": "Point",
                "coordinates": [
                    0.6829168618776976,
                    -0.06657685353850139
                ]
            }
        },
        {
            "type": "Feature",
            "properties": {
                "label": "202107061403 Memex, second brain, PKM, digital garden, what's the differences?.md",
                "color": "rgb(128.21006406643713, 144.82905673635832, 145.74633112483323)"
            },
            "geometry": {
                "type": "Point",
                "coordinates": [
                    0.5606307594435015,
                    -0.10823356693918469
                ]
            }
        },
        {
            "type": "Feature",
            "properties": {
                "label": "202106131148 Practice jazz improvisation by following learning phase principle.md",
                "color": "rgb(155.44775784044637, 114.96682175937949, 159.59574781876623)"
            },
            "geometry": {
                "type": "Point",
                "coordinates": [
                    0.7587024244450196,
                    0.04287765549120755
                ]
            }
        },
        {
            "type": "Feature",
            "properties": {
                "label": "202106152301 Binary code has the best restriction-output ratio.md",
                "color": "rgb(116.25974467547599, 133.35840940463734, 122.62829601594488)"
            },
            "geometry": {
                "type": "Point",
                "coordinates": [
                    0.7320641881312276,
                    0.013951972004594934
                ]
            }
        },
        {
            "type": "Feature",
            "properties": {
                "label": "202106152252 Imposing restrictions to fight the blank page syndrome.md",
                "color": "rgb(135.0445671749514, 133.04916405335, 182.15398523806527)"
            },
            "geometry": {
                "type": "Point",
                "coordinates": [
                    0.7209892257402564,
                    0.10403494195276601
                ]
            }
        },
        {
            "type": "Feature",
            "properties": {
                "label": "~ What are fleeting notes?.md",
                "color": "rgb(149.72494338950608, 105.32408472983306, 228.12131394585984)"
            },
            "geometry": {
                "type": "Point",
                "coordinates": [
                    0.576988487496632,
                    0.3531122003644418
                ]
            }
        },
        {
            "type": "Feature",
            "properties": {
                "label": "202106172218 Slipbox can make working on multiple manuscrits at the same time seamless.md",
                "color": "rgb(140.3064699979634, 123.59652882678232, 206.99310944850393)"
            },
            "geometry": {
                "type": "Point",
                "coordinates": [
                    0.748957504862898,
                    0.13855143156827354
                ]
            }
        },
        {
            "type": "Feature",
            "properties": {
                "label": "202109181532 Domestic Cozy.md",
                "color": "rgb(110.5748918963467, 142.7037203493102, 109.92193371578259)"
            },
            "geometry": {
                "type": "Point",
                "coordinates": [
                    0.6571956089534498,
                    -0.28753646275310574
                ]
            }
        },
        {
            "type": "Feature",
            "properties": {
                "label": "202106172211 Focus isn't what we do but what we don't do.md",
                "color": "rgb(151.99640720326286, 124.90484657202686, 129.10887040244518)"
            },
            "geometry": {
                "type": "Point",
                "coordinates": [
                    0.9453196985482014,
                    0.07527464532598731
                ]
            }
        },
        {
            "type": "Feature",
            "properties": {
                "label": "202107122234 Quadrivium and Trivium.md",
                "color": "rgb(159.1848214514745, 130.05252583103362, 81.50916032029446)"
            },
            "geometry": {
                "type": "Point",
                "coordinates": [
                    0.21304647368522966,
                    -0.14368706389627903
                ]
            }
        },
        {
            "type": "Feature",
            "properties": {
                "label": "202106290027 Make analytical TL;DR of chapters in books.md",
                "color": "rgb(155.5935723785497, 134.3732062366367, 184.25539142096432)"
            },
            "geometry": {
                "type": "Point",
                "coordinates": [
                    0.5364179018507957,
                    0.7596400105408966
                ]
            }
        },
        {
            "type": "Feature",
            "properties": {
                "label": "202106122301 Viewing notes toward the Golden Circle framework helps stating on the relevance of ideas.md",
                "color": "rgb(141.82301508419505, 147.4167770656243, 144.51571234869004)"
            },
            "geometry": {
                "type": "Point",
                "coordinates": [
                    0.7940807969882133,
                    0.22290246360683455
                ]
            }
        },
        {
            "type": "Feature",
            "properties": {
                "label": "202106122255 Empty notes are better than no notes at all.md",
                "color": "rgb(143.6262287496221, 128.9533348304457, 193.0510739082027)"
            },
            "geometry": {
                "type": "Point",
                "coordinates": [
                    0.6128940864287572,
                    0.21714776034557007
                ]
            }
        },
        {
            "type": "Feature",
            "properties": {
                "label": "Axioms.md",
                "color": "rgb(171.39462266598736, 107.74362472946947, 84.26382331665864)"
            },
            "geometry": {
                "type": "Point",
                "coordinates": [
                    0.47180543030750455,
                    0.09492781817885693
                ]
            }
        },
        {
            "type": "Feature",
            "properties": {
                "label": "Normal distribution.md",
                "color": "rgb(131.63912630159288, 112.463639371974, 89.75517183826058)"
            },
            "geometry": {
                "type": "Point",
                "coordinates": [
                    0.6311450909371527,
                    -0.18314207321768392
                ]
            }
        },
        {
            "type": "Feature",
            "properties": {
                "label": "Mixing fundings strategy.md",
                "color": "rgb(119.83855672896638, 109.79943850756247, 139.2225207172913)"
            },
            "geometry": {
                "type": "Point",
                "coordinates": [
                    0.4221702856240107,
                    -0.4586323447060021
                ]
            }
        },
        {
            "type": "Feature",
            "properties": {
                "label": "Seed round.md",
                "color": "rgb(98.11864878004133, 93.21283934129329, 142.7327056374347)"
            },
            "geometry": {
                "type": "Point",
                "coordinates": [
                    0.5835273931278541,
                    -0.4180871951146401
                ]
            }
        },
        {
            "type": "Feature",
            "properties": {
                "label": "Pitch deck.md",
                "color": "rgb(98.96348081765618, 121.81915542703865, 150.85501691635767)"
            },
            "geometry": {
                "type": "Point",
                "coordinates": [
                    0.7561786666686205,
                    -0.3314596860433324
                ]
            }
        },
        {
            "type": "Feature",
            "properties": {
                "label": "Fundraising.md",
                "color": "rgb(128.55518851196751, 118.50655153728484, 138.98183744245503)"
            },
            "geometry": {
                "type": "Point",
                "coordinates": [
                    0.8893818480631238,
                    -0.1562175648234833
                ]
            }
        },
        {
            "type": "Feature",
            "properties": {
                "label": "VC lists.md",
                "color": "rgb(96.8274650814584, 114.16571245334319, 138.14246028962583)"
            },
            "geometry": {
                "type": "Point",
                "coordinates": [
                    0.6567875832257966,
                    -0.34321833372573674
                ]
            }
        },
        {
            "type": "Feature",
            "properties": {
                "label": "Pitching a VC - SaaS case.md",
                "color": "rgb(105.34287504751866, 98.0267014793735, 167.5964566271769)"
            },
            "geometry": {
                "type": "Point",
                "coordinates": [
                    0.3408500540522618,
                    -0.5119819814615156
                ]
            }
        },
        {
            "type": "Feature",
            "properties": {
                "label": "Making underwater videos.md",
                "color": "rgb(97.24904562165153, 207.24740694647164, 135.76973332833606)"
            },
            "geometry": {
                "type": "Point",
                "coordinates": [
                    0.8325377536549956,
                    -0.3655637452246588
                ]
            }
        },
        {
            "type": "Feature",
            "properties": {
                "label": "Gas blending.md",
                "color": "rgb(110.09106808524892, 253.63641881235128, 100.49251953614439)"
            },
            "geometry": {
                "type": "Point",
                "coordinates": [
                    0.7834697302425849,
                    -0.3577374231920963
                ]
            }
        },
        {
            "type": "Feature",
            "properties": {
                "label": "Hyperoxic trimix.md",
                "color": "rgb(105.53959278736329, 246.2236407922199, 78.38579422845658)"
            },
            "geometry": {
                "type": "Point",
                "coordinates": [
                    0.562247907568952,
                    -0.595659142802124
                ]
            }
        },
        {
            "type": "Feature",
            "properties": {
                "label": "Normoxic trimix.md",
                "color": "rgb(111.21533908414463, 245.4560200588412, 86.58085183221733)"
            },
            "geometry": {
                "type": "Point",
                "coordinates": [
                    0.5577776065299236,
                    -0.5096691050800075
                ]
            }
        },
        {
            "type": "Feature",
            "properties": {
                "label": "Partial pressure.md",
                "color": "rgb(126.24794107850889, 220.84500820340736, 93.54407784000477)"
            },
            "geometry": {
                "type": "Point",
                "coordinates": [
                    0.5514139623503328,
                    -0.24084698845316915
                ]
            }
        },
        {
            "type": "Feature",
            "properties": {
                "label": "Nitrox.md",
                "color": "rgb(107.35363900635541, 247.79840050440646, 82.46587535773818)"
            },
            "geometry": {
                "type": "Point",
                "coordinates": [
                    0.6723748638162199,
                    -0.43415668305342664
                ]
            }
        },
        {
            "type": "Feature",
            "properties": {
                "label": "Hypoxic trimix.md",
                "color": "rgb(113.8469579559866, 245.9525755996064, 92.37037849827772)"
            },
            "geometry": {
                "type": "Point",
                "coordinates": [
                    0.6102873652868946,
                    -0.5582003068362982
                ]
            }
        },
        {
            "type": "Feature",
            "properties": {
                "label": "Trimix.md",
                "color": "rgb(102.76595449004782, 234.68744875390246, 76.19751561578082)"
            },
            "geometry": {
                "type": "Point",
                "coordinates": [
                    0.6957592808458556,
                    -0.5634610056660035
                ]
            }
        },
        {
            "type": "Feature",
            "properties": {
                "label": "Hyperoxia.md",
                "color": "rgb(140.44996725459717, 243.56875008887556, 79.97077003074467)"
            },
            "geometry": {
                "type": "Point",
                "coordinates": [
                    0.5424993500310423,
                    -0.40005121005248473
                ]
            }
        },
        {
            "type": "Feature",
            "properties": {
                "label": "Nitrogen narcosis.md",
                "color": "rgb(138.25168795363507, 243.52449299177385, 114.69202089238422)"
            },
            "geometry": {
                "type": "Point",
                "coordinates": [
                    0.7587577980059944,
                    -0.3733766866081206
                ]
            }
        },
        {
            "type": "Feature",
            "properties": {
                "label": "Decompression sickness.md",
                "color": "rgb(115.80176285181656, 256.0, 87.29389024519367)"
            },
            "geometry": {
                "type": "Point",
                "coordinates": [
                    0.7294593395619325,
                    -0.4576510335437268
                ]
            }
        },
        {
            "type": "Feature",
            "properties": {
                "label": "Scuba diving.md",
                "color": "rgb(120.97287004950587, 231.9362327012459, 94.22073548372222)"
            },
            "geometry": {
                "type": "Point",
                "coordinates": [
                    0.6714789829707853,
                    -0.35355006048331744
                ]
            }
        },
        {
            "type": "Feature",
            "properties": {
                "label": "Redbone - Childish Gambino.md",
                "color": "rgb(104.81532441268395, 135.574253559133, 167.9719140584968)"
            },
            "geometry": {
                "type": "Point",
                "coordinates": [
                    0.24082610722236109,
                    -0.34849488123552985
                ]
            }
        },
        {
            "type": "Feature",
            "properties": {
                "label": "Rapture - Koffee.md",
                "color": "rgb(100.11929467690123, 134.28788330796087, 153.93486055961512)"
            },
            "geometry": {
                "type": "Point",
                "coordinates": [
                    0.36847392255692585,
                    -0.449695425967216
                ]
            }
        },
        {
            "type": "Feature",
            "properties": {
                "label": "Giant Steps - John Coltrane.md",
                "color": "rgb(86.18933405101075, 117.57187573501267, 171.53521237049853)"
            },
            "geometry": {
                "type": "Point",
                "coordinates": [
                    0.19298997291575454,
                    -0.22110366006424237
                ]
            }
        },
        {
            "type": "Feature",
            "properties": {
                "label": "Armando's Rhumba - Chick Corea.md",
                "color": "rgb(102.80425403345586, 139.7133793439691, 156.49668932539961)"
            },
            "geometry": {
                "type": "Point",
                "coordinates": [
                    0.08261031044582251,
                    -0.3629846659042023
                ]
            }
        },
        {
            "type": "Feature",
            "properties": {
                "label": "~ Full list of the song I learned - Map of content.md",
                "color": "rgb(100.2050853710314, 149.70611831473195, 175.5037090082078)"
            },
            "geometry": {
                "type": "Point",
                "coordinates": [
                    0.41853063221995096,
                    -0.23204645500085191
                ]
            }
        },
        {
            "type": "Feature",
            "properties": {
                "label": "Nemesis - Aaron Parks.md",
                "color": "rgb(86.65755689188828, 131.41458674107366, 169.90942655637235)"
            },
            "geometry": {
                "type": "Point",
                "coordinates": [
                    0.23052322043914905,
                    -0.2369084452603906
                ]
            }
        },
        {
            "type": "Feature",
            "properties": {
                "label": "All the things you are - Jerome Kern.md",
                "color": "rgb(93.87263274955423, 117.43140908388592, 146.0227979573745)"
            },
            "geometry": {
                "type": "Point",
                "coordinates": [
                    0.29152761141233385,
                    -0.2207924884687624
                ]
            }
        },
        {
            "type": "Feature",
            "properties": {
                "label": "Running Away - Bob Marley and the Wailers.md",
                "color": "rgb(104.48222620107153, 157.19559403755247, 158.2770359757587)"
            },
            "geometry": {
                "type": "Point",
                "coordinates": [
                    0.3919809543329848,
                    -0.3585677667960188
                ]
            }
        },
        {
            "type": "Feature",
            "properties": {
                "label": "Crazy Baldhead - Bob Marley and the Wailers.md",
                "color": "rgb(108.62126992144346, 152.79401686025656, 160.61414282273634)"
            },
            "geometry": {
                "type": "Point",
                "coordinates": [
                    0.308730329671865,
                    -0.3905085153603061
                ]
            }
        },
        {
            "type": "Feature",
            "properties": {
                "label": "Voyage Autour Du Monde (Tome I) - Dumont D'urville.md",
                "color": "rgb(144.50996021228704, 189.13733939274564, 141.49134630984696)"
            },
            "geometry": {
                "type": "Point",
                "coordinates": [
                    -0.4896731861886575,
                    -0.17532444991663915
                ]
            }
        },
        {
            "type": "Feature",
            "properties": {
                "label": "Plong\u00e9es Autour Du Monde - Jean Bernard Carillet, Olivier Oudon.md",
                "color": "rgb(121.98897561720906, 193.04841159802504, 128.9525385035508)"
            },
            "geometry": {
                "type": "Point",
                "coordinates": [
                    -0.3062027268068405,
                    -0.2711901141579785
                ]
            }
        },
        {
            "type": "Feature",
            "properties": {
                "label": "Encyclop\u00e9die Progressive Ou, Abr\u00e9g\u00e9 Des Sciences, Des Arts Et Des Connaissances Utiles (Tome II) - Mlle M. Forgame.md",
                "color": "rgb(156.02550130684835, 124.35964588976283, 152.00112743670914)"
            },
            "geometry": {
                "type": "Point",
                "coordinates": [
                    -0.45379184160511865,
                    0.0265780277812148
                ]
            }
        },
        {
            "type": "Feature",
            "properties": {
                "label": "Les Voyages D'Ulysse - Mythologie.md",
                "color": "rgb(127.9322099827128, 156.27170597493594, 130.058041423644)"
            },
            "geometry": {
                "type": "Point",
                "coordinates": [
                    -0.7783660388156041,
                    0.008908524545780751
                ]
            }
        },
        {
            "type": "Feature",
            "properties": {
                "label": "Rap Ta France - Jos\u00e9 Louis Bocquet, Philippe Pierre Adolphe.md",
                "color": "rgb(122.74943589533773, 117.67745685788012, 148.70576211517337)"
            },
            "geometry": {
                "type": "Point",
                "coordinates": [
                    -0.746718800011116,
                    -0.10749449391039631
                ]
            }
        },
        {
            "type": "Feature",
            "properties": {
                "label": "Dilemmes De Prisonniers Et Strat\u00e9gies Dominantes : La Th\u00e9orie Des Jeux #7 - Fernando Corbal\u00e1n.md",
                "color": "rgb(151.3001035284966, 112.37405629245065, 125.61431062468932)"
            },
            "geometry": {
                "type": "Point",
                "coordinates": [
                    -0.4001059317935839,
                    -0.024100217839445666
                ]
            }
        },
        {
            "type": "Feature",
            "properties": {
                "label": "Vie Priv\u00e9e De Louis Xv   Tome Premier - Unknown.md",
                "color": "rgb(146.7216197722154, 132.9196178662465, 135.11057538796092)"
            },
            "geometry": {
                "type": "Point",
                "coordinates": [
                    -0.7740252903513475,
                    -0.006763695108453926
                ]
            }
        },
        {
            "type": "Feature",
            "properties": {
                "label": "Tout Alice - Lewis Carroll.md",
                "color": "rgb(106.3986542129641, 102.5149536695198, 105.0300355885959)"
            },
            "geometry": {
                "type": "Point",
                "coordinates": [
                    -0.7292517066804949,
                    0.170839582551866
                ]
            }
        },
        {
            "type": "Feature",
            "properties": {
                "label": "The Smart Thinking Book - Kevin Duncan .md",
                "color": "rgb(94.8556251482934, 104.86461338955857, 126.93510133943325)"
            },
            "geometry": {
                "type": "Point",
                "coordinates": [
                    -0.06794462474081354,
                    0.5585401166460744
                ]
            }
        },
        {
            "type": "Feature",
            "properties": {
                "label": "Devenez Un Grand Orateur Ted   Les 9 Secrets Des Prises De Paroles Les Plus Brillantes - Carmine Gallo.md",
                "color": "rgb(145.60771538170408, 106.32385078719452, 129.4122809028719)"
            },
            "geometry": {
                "type": "Point",
                "coordinates": [
                    -0.3011948826490617,
                    0.07338141456614684
                ]
            }
        },
        {
            "type": "Feature",
            "properties": {
                "label": "Th\u00e9\u00e2tre Complet Tom 2 - William Shakespeare.md",
                "color": "rgb(132.23878925937592, 119.61010808413212, 107.81125503131703)"
            },
            "geometry": {
                "type": "Point",
                "coordinates": [
                    -0.5997726708944169,
                    0.04092124862257292
                ]
            }
        },
        {
            "type": "Feature",
            "properties": {
                "label": "La Lecture Rapide - Tony Buzan.md",
                "color": "rgb(128.882115044389, 103.85298909807848, 123.27595083408308)"
            },
            "geometry": {
                "type": "Point",
                "coordinates": [
                    -0.5362797514079453,
                    0.327168637987498
                ]
            }
        },
        {
            "type": "Feature",
            "properties": {
                "label": "La Vie Secr\u00e8te Des Nombres : Les Bizarreries Des Math\u00e9matiques #27 - Joaqu\u00edn Navarro.md",
                "color": "rgb(114.67075906909503, 109.03394115906173, 139.34183715832523)"
            },
            "geometry": {
                "type": "Point",
                "coordinates": [
                    -0.6488203283705666,
                    0.06026015622018089
                ]
            }
        },
        {
            "type": "Feature",
            "properties": {
                "label": "Construction 4.0 - Karim N\u2019essaie, Christian Grellier, Edward Woods .md",
                "color": "rgb(104.77251546783819, 100.84596971245709, 110.02861014671146)"
            },
            "geometry": {
                "type": "Point",
                "coordinates": [
                    -0.6083471336128802,
                    0.1384073598130315
                ]
            }
        },
        {
            "type": "Feature",
            "properties": {
                "label": "Tout Le Monde N'a Pas Eu La Chance De Rater Ses \u00e9tudes - Olivier Roland.md",
                "color": "rgb(143.79777682470075, 96.86370763446615, 122.04866580228992)"
            },
            "geometry": {
                "type": "Point",
                "coordinates": [
                    -0.38449010918772014,
                    0.13756303873090558
                ]
            }
        },
        {
            "type": "Feature",
            "properties": {
                "label": "Sur Le R\u00eave - Sigmund Freud.md",
                "color": "rgb(137.27281845829316, 128.43409268883892, 135.31539298729092)"
            },
            "geometry": {
                "type": "Point",
                "coordinates": [
                    -0.6223754825519232,
                    0.1468837662526248
                ]
            }
        },
        {
            "type": "Feature",
            "properties": {
                "label": "Le Royaume Des Animaux 21 : Python Rous - Maurice Burton, Robert Burton .md",
                "color": "rgb(137.16373826671764, 230.47951034409357, 163.9773774487149)"
            },
            "geometry": {
                "type": "Point",
                "coordinates": [
                    -0.8121877234525194,
                    -0.1784311973695693
                ]
            }
        },
        {
            "type": "Feature",
            "properties": {
                "label": "The 4-hour Workweek - Tim Ferris.md",
                "color": "rgb(141.05447322028616, 102.0705216654425, 115.84681343460771)"
            },
            "geometry": {
                "type": "Point",
                "coordinates": [
                    0.16715947510542717,
                    0.11663788048782775
                ]
            }
        },
        {
            "type": "Feature",
            "properties": {
                "label": "Les Onze Lois De La R\u00e9ussite - Anthony Robbins.md",
                "color": "rgb(129.9158736880885, 122.25583231322659, 128.5047158821271)"
            },
            "geometry": {
                "type": "Point",
                "coordinates": [
                    -0.5393313480795451,
                    0.19507778593206265
                ]
            }
        },
        {
            "type": "Feature",
            "properties": {
                "label": "Business   Les Grandes Id\u00e9es Tout Simplement  - Various.md",
                "color": "rgb(120.83299512953224, 90.1410868714434, 130.62908963809343)"
            },
            "geometry": {
                "type": "Point",
                "coordinates": [
                    -0.5056036898101065,
                    0.0888008404724024
                ]
            }
        },
        {
            "type": "Feature",
            "properties": {
                "label": "Le Mythe De La Singularit\u00e9, Faut Il Craindre L\u2019intelligence Artificielle ? - Jean Gabriel Ganascia.md",
                "color": "rgb(113.87828796638973, 95.8562787757993, 96.25439221288151)"
            },
            "geometry": {
                "type": "Point",
                "coordinates": [
                    -0.44673432419952724,
                    0.02651521685063087
                ]
            }
        },
        {
            "type": "Feature",
            "properties": {
                "label": "Voyages Extraordinaires : Les Indes Noires  - Jules Verne .md",
                "color": "rgb(121.01498701394775, 161.63811991602296, 142.184441543317)"
            },
            "geometry": {
                "type": "Point",
                "coordinates": [
                    -0.7486285240952166,
                    -0.045663607900306775
                ]
            }
        },
        {
            "type": "Feature",
            "properties": {
                "label": "Les Oracles De Nostradamus : Tome 2 - Nostradamus.md",
                "color": "rgb(116.09294564833066, 125.24738732508588, 115.07771468374493)"
            },
            "geometry": {
                "type": "Point",
                "coordinates": [
                    -0.6759788945434367,
                    0.1456298544743098
                ]
            }
        },
        {
            "type": "Feature",
            "properties": {
                "label": "Le Papillon Et La Tornade : Th\u00e9orie Du Chaos Et Changement Climatique #28 - Carlos Madrid.md",
                "color": "rgb(125.25832586000209, 119.08331534110836, 147.4945226649285)"
            },
            "geometry": {
                "type": "Point",
                "coordinates": [
                    -0.5629889290875114,
                    -0.015012958628343415
                ]
            }
        },