{
    "type": "FeatureCollection",
    "features": [
        {
            "type": "Feature",
            "properties": {
                "label": "Create a programming language.md",
                "color": "rgb(81.73507175218033, 104.50213244967604, 114.70264603663108)"
            },
            "geometry": {
                "type": "Point",
                "coordinates": [
                    0.6508793063228849,
                    -0.03369681764361169
                ]
            }
        },
        {
            "type": "Feature",
            "properties": {
                "label": "Programming languages.md",
                "color": "rgb(107.61497494722707, 105.3063373782405, 113.10734587411058)"
            },
            "geometry": {
                "type": "Point",
                "coordinates": [
                    0.6902856685093384,
                    0.028190286894498373
                ]
            }
        },
        {
            "type": "Feature",
            "properties": {
                "label": "Inspectional reading.md",
                "color": "rgb(173.5971540154251, 168.5088997782667, 50.96827015912166)"
            },
            "geometry": {
                "type": "Point",
                "coordinates": [
                    0.5528910037872082,
                    0.6891917155498877
                ]
            }
        },
        {
            "type": "Feature",
            "properties": {
                "label": "Reading philosophy.md",
                "color": "rgb(169.4047570056656, 145.09422626927096, 55.19286330639787)"
            },
            "geometry": {
                "type": "Point",
                "coordinates": [
                    0.34699588733994985,
                    0.6046564641344261
                ]
            }
        },
        {
            "type": "Feature",
            "properties": {
                "label": "Reading imaginary.md",
                "color": "rgb(168.81542050822395, 171.3076963788006, 53.22280062717449)"
            },
            "geometry": {
                "type": "Point",
                "coordinates": [
                    0.49161032771484503,
                    0.7147836376163179
                ]
            }
        },
        {
            "type": "Feature",
            "properties": {
                "label": "Reading technics should differ depending on book type.md",
                "color": "rgb(168.2703466881053, 150.76003404515927, 81.51370086167779)"
            },
            "geometry": {
                "type": "Point",
                "coordinates": [
                    0.6160317294922247,
                    0.8613110549172399
                ]
            }
        },
        {
            "type": "Feature",
            "properties": {
                "label": "Elementary reading.md",
                "color": "rgb(178.89551105912318, 161.7883053117788, 55.31606028540055)"
            },
            "geometry": {
                "type": "Point",
                "coordinates": [
                    0.5660596632359357,
                    0.46307750045535045
                ]
            }
        },
        {
            "type": "Feature",
            "properties": {
                "label": "Re-reading books.md",
                "color": "rgb(165.9780334586419, 151.3481289394966, 91.72832513958441)"
            },
            "geometry": {
                "type": "Point",
                "coordinates": [
                    0.6478076504425359,
                    0.7159603019844804
                ]
            }
        },
        {
            "type": "Feature",
            "properties": {
                "label": "Evaluate a book.md",
                "color": "rgb(154.70517033884974, 142.33720969061935, 80.55363057369306)"
            },
            "geometry": {
                "type": "Point",
                "coordinates": [
                    0.4783821050734205,
                    0.7045541790937245
                ]
            }
        },
        {
            "type": "Feature",
            "properties": {
                "label": "Syntopical reading.md",
                "color": "rgb(181.97411497903227, 160.33733127380913, 75.98872639494486)"
            },
            "geometry": {
                "type": "Point",
                "coordinates": [
                    0.4291300782063001,
                    0.5466187008772826
                ]
            }
        },
        {
            "type": "Feature",
            "properties": {
                "label": "The four levels of reading.md",
                "color": "rgb(177.0351336675903, 165.0406029584489, 42.45435957537323)"
            },
            "geometry": {
                "type": "Point",
                "coordinates": [
                    0.6176848221834005,
                    0.8724517133249804
                ]
            }
        },
        {
            "type": "Feature",
            "properties": {
                "label": "Reading science and mathematics.md",
                "color": "rgb(174.44176769749726, 152.72857955323454, 68.65174534832278)"
            },
            "geometry": {
                "type": "Point",
                "coordinates": [
                    0.49821971963635414,
                    0.6450541566716864
                ]
            }
        },
        {
            "type": "Feature",
            "properties": {
                "label": "Speed reading.md",
                "color": "rgb(178.0276391766443, 143.71482474763937, 91.4136402053229)"
            },
            "geometry": {
                "type": "Point",
                "coordinates": [
                    0.6808072274761985,
                    0.5805198380129266
                ]
            }
        },
        {
            "type": "Feature",
            "properties": {
                "label": "Selective reading.md",
                "color": "rgb(185.96006313184822, 143.30146198869508, 67.26426152698633)"
            },
            "geometry": {
                "type": "Point",
                "coordinates": [
                    0.6004298370809585,
                    0.6483007152613783
                ]
            }
        },
        {
            "type": "Feature",
            "properties": {
                "label": "Reading history.md",
                "color": "rgb(170.50868373963579, 146.32039622034972, 84.30964070433163)"
            },
            "geometry": {
                "type": "Point",
                "coordinates": [
                    0.5979420399309675,
                    0.4869547174482686
                ]
            }
        },
        {
            "type": "Feature",
            "properties": {
                "label": "Reading biographies.md",
                "color": "rgb(144.01209565513363, 168.7454000547449, 66.77327795093916)"
            },
            "geometry": {
                "type": "Point",
                "coordinates": [
                    0.4333332947873397,
                    0.29143305598750013
                ]
            }
        },
        {
            "type": "Feature",
            "properties": {
                "label": "Reading digests.md",
                "color": "rgb(169.40906973568957, 170.65189912875252, 81.33783651836163)"
            },
            "geometry": {
                "type": "Point",
                "coordinates": [
                    0.4876392938401783,
                    0.7240400331767916
                ]
            }
        },
        {
            "type": "Feature",
            "properties": {
                "label": "Reading news.md",
                "color": "rgb(170.5991272514764, 164.9105324640179, 54.24075435831088)"
            },
            "geometry": {
                "type": "Point",
                "coordinates": [
                    0.6193804300358505,
                    0.37350200773587783
                ]
            }
        },
        {
            "type": "Feature",
            "properties": {
                "label": "Analytical reading.md",
                "color": "rgb(182.64751795650372, 161.18626888971363, 38.484015241943055)"
            },
            "geometry": {
                "type": "Point",
                "coordinates": [
                    0.5193535389570627,
                    0.8637622723477814
                ]
            }
        },
        {
            "type": "Feature",
            "properties": {
                "label": "Augmented reality.md",
                "color": "rgb(77.24167368598259, 135.97012220756704, 50.288010934798436)"
            },
            "geometry": {
                "type": "Point",
                "coordinates": [
                    0.5787202726807895,
                    -0.31480509020091174
                ]
            }
        },
        {
            "type": "Feature",
            "properties": {
                "label": "AR devices.md",
                "color": "rgb(50.89283771764809, 118.5987327973904, 57.4675475264181)"
            },
            "geometry": {
                "type": "Point",
                "coordinates": [
                    0.658866084100699,
                    -0.3500701827915788
                ]
            }
        },
        {
            "type": "Feature",
            "properties": {
                "label": "Mixed reality.md",
                "color": "rgb(64.11935272597012, 147.06959594394993, 49.08897564624834)"
            },
            "geometry": {
                "type": "Point",
                "coordinates": [
                    0.5662132145494929,
                    -0.28494522017832863
                ]
            }
        },
        {
            "type": "Feature",
            "properties": {
                "label": "No-code tools for AR.md",
                "color": "rgb(46.53555679650931, 122.88101313095969, 110.19155455280165)"
            },
            "geometry": {
                "type": "Point",
                "coordinates": [
                    0.6365641532507043,
                    -0.313523745927511
                ]
            }
        },
        {
            "type": "Feature",
            "properties": {
                "label": "Video.md",
                "color": "rgb(93.15466551920724, 139.99220421648477, 162.00560882313596)"
            },
            "geometry": {
                "type": "Point",
                "coordinates": [
                    0.8439801849686397,
                    -0.13132290260703933
                ]
            }
        },
        {
            "type": "Feature",
            "properties": {
                "label": "Premiere Pro.md",
                "color": "rgb(88.06262243420572, 157.58899854577749, 165.6898846337288)"
            },
            "geometry": {
                "type": "Point",
                "coordinates": [
                    0.7875289546486878,
                    -0.30910715585125964
                ]
            }
        },
        {
            "type": "Feature",
            "properties": {
                "label": "Make great videos.md",
                "color": "rgb(81.3314798613834, 142.37733771165105, 157.44562555493098)"
            },
            "geometry": {
                "type": "Point",
                "coordinates": [
                    0.8862358523427684,
                    -0.2037279645000905
                ]
            }
        },
        {
            "type": "Feature",
            "properties": {
                "label": "Hyperinflation.md",
                "color": "rgb(148.374401528882, 138.63610468255465, 84.26959563078591)"
            },
            "geometry": {
                "type": "Point",
                "coordinates": [
                    0.4875014511222525,
                    -0.40870044359124946
                ]
            }
        },
        {
            "type": "Feature",
            "properties": {
                "label": "Printing more money could create inflation.md",
                "color": "rgb(128.27072681648573, 155.36433050141966, 100.73588955826077)"
            },
            "geometry": {
                "type": "Point",
                "coordinates": [
                    0.620282127603604,
                    -0.1753056737201799
                ]
            }
        },
        {
            "type": "Feature",
            "properties": {
                "label": "Music theory.md",
                "color": "rgb(141.20735241649874, 146.20206352605558, 161.25308292309066)"
            },
            "geometry": {
                "type": "Point",
                "coordinates": [
                    0.4568203953413201,
                    0.004730076380348409
                ]
            }
        },
        {
            "type": "Feature",
            "properties": {
                "label": "One drop pattern.md",
                "color": "rgb(129.60492342735944, 139.742704442758, 157.90538473477937)"
            },
            "geometry": {
                "type": "Point",
                "coordinates": [
                    0.6443662502935592,
                    -0.34875368394161854
                ]
            }
        },
        {
            "type": "Feature",
            "properties": {
                "label": "Circle of fifth.md",
                "color": "rgb(132.33325412249076, 134.05156633519454, 140.85803508726843)"
            },
            "geometry": {
                "type": "Point",
                "coordinates": [
                    0.6949518114527983,
                    -0.11026972845500743
                ]
            }
        },
        {
            "type": "Feature",
            "properties": {
                "label": "Harmonic Minor.md",
                "color": "rgb(109.74055790824634, 149.8747125906212, 131.6240803981372)"
            },
            "geometry": {
                "type": "Point",
                "coordinates": [
                    0.5488884914440295,
                    -0.26835976670967093
                ]
            }
        },
        {
            "type": "Feature",
            "properties": {
                "label": "Contrapuntal music (in film).md",
                "color": "rgb(157.88272984181654, 138.93462347694606, 125.78961947140127)"
            },
            "geometry": {
                "type": "Point",
                "coordinates": [
                    0.5369862607525396,
                    -0.25476667638223444
                ]
            }
        },
        {
            "type": "Feature",
            "properties": {
                "label": "Chords progressions.md",
                "color": "rgb(124.50796924237999, 138.31608305234502, 149.13363090764386)"
            },
            "geometry": {
                "type": "Point",
                "coordinates": [
                    0.48941392879046575,
                    -0.2586006199142509
                ]
            }
        },
        {
            "type": "Feature",
            "properties": {
                "label": "Freemium.md",
                "color": "rgb(117.3839813612974, 110.4604256935232, 121.6560840641918)"
            },
            "geometry": {
                "type": "Point",
                "coordinates": [
                    0.783758980425728,
                    -0.36465646119930256
                ]
            }
        },
        {
            "type": "Feature",
            "properties": {
                "label": "Writing on Medium.md",
                "color": "rgb(97.52555851382624, 125.11473804557872, 138.96198011820357)"
            },
            "geometry": {
                "type": "Point",
                "coordinates": [
                    0.7477219613864475,
                    -0.052490088243498385
                ]
            }
        },
        {
            "type": "Feature",
            "properties": {
                "label": "Newsletters.md",
                "color": "rgb(111.56324793467043, 115.99489800155555, 165.95819372814375)"
            },
            "geometry": {
                "type": "Point",
                "coordinates": [
                    0.5906225562598811,
                    -0.2823863222406728
                ]
            }
        },
        {
            "type": "Feature",
            "properties": {
                "label": "Somatosensory.md",
                "color": "rgb(147.9402798216882, 149.23618145612988, 90.27636122696526)"
            },
            "geometry": {
                "type": "Point",
                "coordinates": [
                    0.5429688371938711,
                    -0.19543409556326471
                ]
            }
        },
        {
            "type": "Feature",
            "properties": {
                "label": "Working memory.md",
                "color": "rgb(161.93679997118028, 124.42205497317536, 143.564253207325)"
            },
            "geometry": {
                "type": "Point",
                "coordinates": [
                    0.8542108099666293,
                    0.19830093830036843
                ]
            }
        },
        {
            "type": "Feature",
            "properties": {
                "label": "Hardware.md",
                "color": "rgb(42.25246602782893, 103.9977003253199, 111.32153272654794)"
            },
            "geometry": {
                "type": "Point",
                "coordinates": [
                    0.5852678539674969,
                    -0.3055364497743835
                ]
            }
        },
        {
            "type": "Feature",
            "properties": {
                "label": "DSP (Digital Signal Processor).md",
                "color": "rgb(63.869972419176975, 122.81746159748427, 91.5050655961162)"
            },
            "geometry": {
                "type": "Point",
                "coordinates": [
                    0.6561599155626366,
                    -0.42632269139202794
                ]
            }
        },
        {
            "type": "Feature",
            "properties": {
                "label": "ALU (Arithmetic Logic Unit).md",
                "color": "rgb(76.68750650772157, 105.70509554239251, 56.728419104140386)"
            },
            "geometry": {
                "type": "Point",
                "coordinates": [
                    0.4131425321715301,
                    -0.3072682867121737
                ]
            }
        },
        {
            "type": "Feature",
            "properties": {
                "label": "Raspberry Pi.md",
                "color": "rgb(34.272219914440015, 92.87874769112165, 75.46207628138576)"
            },
            "geometry": {
                "type": "Point",
                "coordinates": [
                    0.6048183620508749,
                    -0.47902406808983
                ]
            }
        },
        {
            "type": "Feature",
            "properties": {
                "label": "ARM (Advanced RISC Machines).md",
                "color": "rgb(53.58751401431584, 114.63329156039492, 69.29492040642779)"
            },
            "geometry": {
                "type": "Point",
                "coordinates": [
                    0.6381699830971941,
                    -0.48125053876012985
                ]
            }
        },
        {
            "type": "Feature",
            "properties": {
                "label": "RAM (Random-Access Memory).md",
                "color": "rgb(118.36752653608845, 114.22561228457907, 98.82643827220372)"
            },
            "geometry": {
                "type": "Point",
                "coordinates": [
                    0.6794016207257939,
                    -0.15272992927307832
                ]
            }
        },
        {
            "type": "Feature",
            "properties": {
                "label": "Places.md",
                "color": "rgb(144.10262899200706, 108.5312410410815, 151.42797874406264)"
            },
            "geometry": {
                "type": "Point",
                "coordinates": [
                    0.3051324020862292,
                    -0.47312606518356715
                ]
            }
        },
        {
            "type": "Feature",
            "properties": {
                "label": "Third places.md",
                "color": "rgb(145.19480030834023, 136.36902034126982, 183.84954762566846)"
            },
            "geometry": {
                "type": "Point",
                "coordinates": [
                    0.30959386132221706,
                    -0.18817885233958
                ]
            }
        },
        {
            "type": "Feature",
            "properties": {
                "label": "State controlled saving plans.md",
                "color": "rgb(127.93209754114555, 120.93768806953051, 129.79613493505263)"
            },
            "geometry": {
                "type": "Point",
                "coordinates": [
                    0.19358337667794712,
                    -0.3483406472728526
                ]
            }
        },
        {
            "type": "Feature",
            "properties": {
                "label": "Stock markets.md",
                "color": "rgb(84.06652349755137, 97.63592463336373, 109.25999262010053)"
            },
            "geometry": {
                "type": "Point",
                "coordinates": [
                    0.6241232119261864,
                    -0.1660355300458615
                ]
            }
        },
        {
            "type": "Feature",
            "properties": {
                "label": "Real estate.md",
                "color": "rgb(102.7166754684718, 115.18009424633541, 96.40870249239126)"
            },
            "geometry": {
                "type": "Point",
                "coordinates": [
                    0.5521769139064904,
                    -0.16097197186755902
                ]
            }
        },
        {
            "type": "Feature",
            "properties": {
                "label": "Old books.md",
                "color": "rgb(107.39111630785342, 117.91891815746554, 98.62164487501259)"
            },
            "geometry": {
                "type": "Point",
                "coordinates": [
                    0.12856843712291935,
                    0.2283154042586546
                ]
            }
        },
        {
            "type": "Feature",
            "properties": {
                "label": "Cryptocurrencies.md",
                "color": "rgb(55.81766707080523, 115.12164263886153, 110.31027593849967)"
            },
            "geometry": {
                "type": "Point",
                "coordinates": [
                    0.6061605073693573,
                    -0.313834267844127
                ]
            }
        },
        {
            "type": "Feature",
            "properties": {
                "label": "Exchange Traded Funds (ETF).md",
                "color": "rgb(86.79263256187701, 98.3346529897274, 96.76662073214837)"
            },
            "geometry": {
                "type": "Point",
                "coordinates": [
                    0.5197782239517582,
                    -0.3751502356896572
                ]
            }
        },
        {
            "type": "Feature",
            "properties": {
                "label": "Saving habit.md",
                "color": "rgb(131.12317350478494, 149.0951266098378, 155.86108043267896)"
            },
            "geometry": {
                "type": "Point",
                "coordinates": [
                    0.7688478249456285,
                    -0.09512281246336422
                ]
            }
        },
        {
            "type": "Feature",
            "properties": {
                "label": "Emergency fund.md",
                "color": "rgb(119.76714694078501, 137.627428433844, 120.28715911357561)"
            },
            "geometry": {
                "type": "Point",
                "coordinates": [
                    0.7541477040640042,
                    -0.18754163200907156
                ]
            }
        },
        {
            "type": "Feature",
            "properties": {
                "label": "My investment strategy.md",
                "color": "rgb(118.00510447878165, 126.88587100126014, 126.4096502301771)"
            },
            "geometry": {
                "type": "Point",
                "coordinates": [
                    0.667205014281804,
                    -0.16257012252429737
                ]
            }
        },
        {
            "type": "Feature",
            "properties": {
                "label": "Personal finances.md",
                "color": "rgb(133.520593879055, 126.29905620845395, 153.3796043925823)"
            },
            "geometry": {
                "type": "Point",
                "coordinates": [
                    0.6821488882321233,
                    -0.147701915328501
                ]
            }
        },
        {
            "type": "Feature",
            "properties": {
                "label": "AudioSet dataset.md",
                "color": "rgb(70.90137840729372, 113.65380295097243, 137.39335134775658)"
            },
            "geometry": {
                "type": "Point",
                "coordinates": [
                    0.40028795451258625,
                    -0.3737286388363501
                ]
            }
        },
        {
            "type": "Feature",
            "properties": {
                "label": "Sound classification.md",
                "color": "rgb(77.83456126513414, 112.318836470177, 112.10989457187875)"
            },
            "geometry": {
                "type": "Point",
                "coordinates": [
                    0.6322237703429721,
                    -0.33784517548279036
                ]
            }
        },
        {
            "type": "Feature",
            "properties": {
                "label": "Mel Spectogram.md",
                "color": "rgb(115.55668465350912, 146.88073765735686, 130.90088876559994)"
            },
            "geometry": {
                "type": "Point",
                "coordinates": [
                    0.5242099117588165,
                    -0.29088577106943303
                ]
            }
        },
        {
            "type": "Feature",
            "properties": {
                "label": "Welcome in my mind \ud83e\udde0.md",
                "color": "rgb(93.60631749246262, 133.97358826797367, 171.11797532982223)"
            },
            "geometry": {
                "type": "Point",
                "coordinates": [
                    0.44071991619823586,
                    -0.2601183005130857
                ]
            }
        },
        {
            "type": "Feature",
            "properties": {
                "label": "Soundproofing.md",
                "color": "rgb(118.2402815929013, 143.39118522150665, 155.76703472241428)"
            },
            "geometry": {
                "type": "Point",
                "coordinates": [
                    0.6872961863412442,
                    -0.2648263180843923
                ]
            }
        },
        {
            "type": "Feature",
            "properties": {
                "label": "The zettelkasten method and how to take smart notes.md",
                "color": "rgb(119.47597727207386, 92.02231104284215, 256.0)"
            },
            "geometry": {
                "type": "Point",
                "coordinates": [
                    0.8084443741200179,
                    0.45209682690083275
                ]
            }
        },
        {
            "type": "Feature",
            "properties": {
                "label": "Fleeting notes to capture thoughts.md",
                "color": "rgb(126.57659204114701, 98.01134079741773, 243.8873962323604)"
            },
            "geometry": {
                "type": "Point",
                "coordinates": [
                    0.7857384268359451,
                    0.28122086060338236
                ]
            }
        },
        {
            "type": "Feature",
            "properties": {
                "label": "Zettelkasten for musicians.md",
                "color": "rgb(103.53360684606551, 103.13025506753729, 252.6136285229563)"
            },
            "geometry": {
                "type": "Point",
                "coordinates": [
                    0.7706075602881481,
                    0.22890650667557963
                ]
            }
        },
        {
            "type": "Feature",
            "properties": {
                "label": "Open-closed principle makes Zettelkasten closer to its original design.md",
                "color": "rgb(116.5344925169289, 119.38832797998796, 192.15052781467605)"
            },
            "geometry": {
                "type": "Point",
                "coordinates": [
                    0.734081312194444,
                    0.1400916412600881
                ]
            }
        },
        {
            "type": "Feature",
            "properties": {
                "label": "Litterature note to quote and reference content.md",
                "color": "rgb(151.345460489071, 103.23940660534456, 218.1127247965575)"
            },
            "geometry": {
                "type": "Point",
                "coordinates": [
                    0.5796930562374322,
                    0.5032528873784863
                ]
            }
        },
        {
            "type": "Feature",
            "properties": {
                "label": "Writing is the only thing that count.md",
                "color": "rgb(160.7429015257743, 114.11504256719824, 216.12042520931072)"
            },
            "geometry": {
                "type": "Point",
                "coordinates": [
                    0.8890239306956723,
                    0.6753106068984304
                ]
            }
        },
        {
            "type": "Feature",
            "properties": {
                "label": "Permanent notes to link and develop.md",
                "color": "rgb(125.81407845923277, 110.13702666199181, 235.12801185371407)"
            },
            "geometry": {
                "type": "Point",
                "coordinates": [
                    0.7404307554955224,
                    0.39628388444174945
                ]
            }
        },
        {
            "type": "Feature",
            "properties": {
                "label": "202107062037 Critics need rhetoric.md",
                "color": "rgb(184.25328243036984, 152.90251425854535, 38.977733851195865)"
            },
            "geometry": {
                "type": "Point",
                "coordinates": [
                    0.4760805012868065,
                    0.6526940221718314
                ]
            }
        },
        {
            "type": "Feature",
            "properties": {
                "label": "202107071942 Books never solve practical problems, action does.md",
                "color": "rgb(158.10399351978717, 146.73183840650756, 50.218268317462034)"
            },
            "geometry": {
                "type": "Point",
                "coordinates": [
                    0.41385352460947095,
                    0.8803466274232424
                ]
            }
        },
        {
            "type": "Feature",
            "properties": {
                "label": "202106122210 Expert can rely on their intuition.md",
                "color": "rgb(138.0616630414666, 124.44100716929177, 177.95646467888412)"
            },
            "geometry": {
                "type": "Point",
                "coordinates": [
                    0.8016324116640843,
                    0.4456827913602804
                ]
            }
        },
        {
            "type": "Feature",
            "properties": {
                "label": "202107032023 Don't be an expert, make unexpected connections instead.md",
                "color": "rgb(122.8094785834016, 112.83498548783889, 173.07536226575712)"
            },
            "geometry": {
                "type": "Point",
                "coordinates": [
                    0.9399025078694129,
                    0.36666281051794597
                ]
            }
        },
        {
            "type": "Feature",
            "properties": {
                "label": "202106201717 Avoid immobility by starting projects as drafts.md",
                "color": "rgb(144.75993883237658, 115.95050250824352, 191.88113011477037)"
            },
            "geometry": {
                "type": "Point",
                "coordinates": [
                    0.9827410367672629,
                    0.3292775028107526
                ]
            }
        },
        {
            "type": "Feature",
            "properties": {
                "label": "202107062101 Don't read with a dictionnary.md",
                "color": "rgb(188.8018947608244, 133.97868729585164, 111.28672939419145)"
            },
            "geometry": {
                "type": "Point",
                "coordinates": [
                    0.4306218821127852,
                    0.4321942529901062
                ]
            }
        },
        {
            "type": "Feature",
            "properties": {
                "label": "202106131144 Learning has multiple phases.md",
                "color": "rgb(171.815362166614, 108.49396504668083, 181.0603863643181)"
            },
            "geometry": {
                "type": "Point",
                "coordinates": [
                    0.8098815762287064,
                    0.5034864646878076
                ]
            }
        },
        {
            "type": "Feature",
            "properties": {
                "label": "202107061345 Interpretative reading.md",
                "color": "rgb(178.88917204382506, 168.1774848254812, 50.33243797269759)"
            },
            "geometry": {
                "type": "Point",
                "coordinates": [
                    0.41922205847379496,
                    0.7994505746914149
                ]
            }
        },
        {
            "type": "Feature",
            "properties": {
                "label": "202106152233 Thinking about solutions to previous problem helps finding creative solutions.md",
                "color": "rgb(144.32325783934468, 132.51050394188056, 142.18144377238)"
            },
            "geometry": {
                "type": "Point",
                "coordinates": [
                    0.6927976680475075,
                    0.2840715475648693
                ]
            }
        },
        {
            "type": "Feature",
            "properties": {
                "label": "202107071935 The two types of practical books.md",
                "color": "rgb(161.38893449636262, 142.6375859790508, 48.29136669806644)"
            },
            "geometry": {
                "type": "Point",
                "coordinates": [
                    0.41469174642017687,
                    0.8350129347286487
                ]
            }
        },
        {
            "type": "Feature",
            "properties": {
                "label": "202109222330 Is Thus Spake Zarathoustra has any historical fundements?.md",
                "color": "rgb(138.20726390634974, 163.95644227807063, 132.71483293338858)"
            },
            "geometry": {
                "type": "Point",
                "coordinates": [
                    0.3473695448903723,
                    0.06997793265885169
                ]
            }
        },
        {
            "type": "Feature",
            "properties": {
                "label": "202106172137 Writing a lot trigger the large number theory on finding great topics.md",
                "color": "rgb(144.62868248904653, 116.10969064301958, 211.02403363475145)"
            },
            "geometry": {
                "type": "Point",
                "coordinates": [
                    0.6781827444964756,
                    0.5300983957821627
                ]
            }
        },
        {
            "type": "Feature",
            "properties": {
                "label": "202106122212 Better taking note by hand.md",
                "color": "rgb(143.08492156060802, 111.3966239608812, 217.52834893429)"
            },
            "geometry": {
                "type": "Point",
                "coordinates": [
                    0.7945206315845049,
                    0.6106606700999018
                ]
            }
        },
        {
            "type": "Feature",
            "properties": {
                "label": "202107062109 Don't use extrinsic aid synchronously.md",
                "color": "rgb(171.031015397244, 166.42728048615456, 57.889037999602266)"
            },
            "geometry": {
                "type": "Point",
                "coordinates": [
                    0.4527849899268039,
                    0.857008139767311
                ]
            }
        },
        {
            "type": "Feature",
            "properties": {
                "label": "202107062046 Book completeness as an indiscutable argument.md",
                "color": "rgb(155.8612517289259, 144.7918095295293, 66.853390939848)"
            },
            "geometry": {
                "type": "Point",
                "coordinates": [
                    0.3309003040430872,
                    0.5597289197152893
                ]
            }
        },
        {
            "type": "Feature",
            "properties": {
                "label": "202106270022 Teaching require empathy.md",
                "color": "rgb(169.09912210515293, 140.51820842070316, 55.54086896211115)"
            },
            "geometry": {
                "type": "Point",
                "coordinates": [
                    0.5132466567451331,
                    0.4680141072434755
                ]
            }
        },
        {
            "type": "Feature",
            "properties": {
                "label": "202106290039 Don't stop on unknown references when reading.md",
                "color": "rgb(176.33311306525934, 141.31798720704566, 124.71101881616981)"
            },
            "geometry": {
                "type": "Point",
                "coordinates": [
                    0.521576523682411,
                    0.7445809581888619
                ]
            }
        },
        {
            "type": "Feature",
            "properties": {
                "label": "202106270039 Best collectors are artists.md",
                "color": "rgb(124.32001796372263, 131.6898948862193, 191.95018746409357)"
            },
            "geometry": {
                "type": "Point",
                "coordinates": [
                    0.7001743908477612,
                    0.009451089773538372
                ]
            }
        },
        {
            "type": "Feature",
            "properties": {
                "label": "202107072126 Imaginary litterature is harder to read.md",
                "color": "rgb(156.51822425568247, 168.7617610952595, 57.57952050256732)"
            },
            "geometry": {
                "type": "Point",
                "coordinates": [
                    0.34823171567513567,
                    0.6387389036687603
                ]
            }
        },
        {
            "type": "Feature",
            "properties": {
                "label": "202106122322 Remembering is bringing back memory to conscious mind.md",
                "color": "rgb(155.8178996527623, 124.12237706319132, 178.42292521914325)"
            },
            "geometry": {
                "type": "Point",
                "coordinates": [
                    0.9154357018085855,
                    0.414770053924289
                ]
            }
        },
        {
            "type": "Feature",
            "properties": {
                "label": "202106122339 Don't worry about slipbox's completeness.md",
                "color": "rgb(137.8590170506041, 127.82281775187039, 233.2527441257467)"
            },
            "geometry": {
                "type": "Point",
                "coordinates": [
                    0.7325498223998663,
                    0.44074020214308196
                ]
            }
        },
        {
            "type": "Feature",
            "properties": {
                "label": "202107032032 Focus is for executing, openess is for creativity.md",
                "color": "rgb(156.2408025221253, 125.08571082905813, 154.0297670481773)"
            },
            "geometry": {
                "type": "Point",
                "coordinates": [
                    0.9741874320773727,
                    0.20385268069198537
                ]
            }
        },
        {
            "type": "Feature",
            "properties": {
                "label": "202106131132 Litterature notes helps comparing different authors ideas.md",
                "color": "rgb(172.19451394129572, 119.20949496676077, 168.60831593016917)"
            },
            "geometry": {
                "type": "Point",
                "coordinates": [
                    0.558705136481419,
                    0.5576848391934728
                ]
            }
        },
        {
            "type": "Feature",
            "properties": {
                "label": "202106152303 Laxism is a threat to creativity.md",
                "color": "rgb(144.35148157738894, 126.74022402047366, 176.36878288504312)"
            },
            "geometry": {
                "type": "Point",
                "coordinates": [
                    0.7638756818257066,
                    0.2464186353135058
                ]
            }
        },
        {
            "type": "Feature",
            "properties": {
                "label": "202107272301 Our mental growth don't have limit.md",
                "color": "rgb(150.3823982314256, 161.40729998460853, 101.1738893938436)"
            },
            "geometry": {
                "type": "Point",
                "coordinates": [
                    0.5186543534603633,
                    0.3845465967583078
                ]
            }
        },
        {
            "type": "Feature",
            "properties": {
                "label": "~ What are litterature notes?.md",
                "color": "rgb(160.85920567058113, 113.18143991623326, 207.02741683560492)"
            },
            "geometry": {
                "type": "Point",
                "coordinates": [
                    0.5123655525193513,
                    0.39617536247077956
                ]
            }
        },
        {
            "type": "Feature",
            "properties": {
                "label": "202106122307 Reading with a pen in hand is a way to test our understanding.md",
                "color": "rgb(174.0875928912017, 126.34648976887392, 146.14353978311968)"
            },
            "geometry": {
                "type": "Point",
                "coordinates": [
                    0.8401350565597483,
                    0.8098508689724185
                ]
            }
        },
        {
            "type": "Feature",
            "properties": {
                "label": "202106122336 Understanding improve strenght retrieval.md",
                "color": "rgb(180.87654262220937, 112.74018148337451, 149.62073700934215)"
            },
            "geometry": {
                "type": "Point",
                "coordinates": [
                    0.7831645073599637,
                    0.5911039855909627
                ]
            }
        },
        {
            "type": "Feature",
            "properties": {
                "label": "202106270036 Don't search for good taste, search for pleasant things.md",
                "color": "rgb(154.36632918570336, 145.28311815092096, 118.33834534187567)"
            },
            "geometry": {
                "type": "Point",
                "coordinates": [
                    0.5490574390391689,
                    -0.12294568477432495
                ]
            }
        },
        {
            "type": "Feature",
            "properties": {
                "label": "202106122329 Multiplying notes connections free us from unexpected cues.md",
                "color": "rgb(148.7745579544185, 115.65719071141034, 208.3249982344775)"
            },
            "geometry": {
                "type": "Point",
                "coordinates": [
                    0.6931578383996324,
                    0.33824939404384874
                ]
            }
        },
        {
            "type": "Feature",
            "properties": {
                "label": "202106270049 Collectors should have an antilibrary.md",
                "color": "rgb(127.99972805338305, 166.1861683398857, 132.03096912152057)"
            },
            "geometry": {
                "type": "Point",
                "coordinates": [
                    0.3280112203397372,
                    0.16796886517473683
                ]
            }
        },
        {
            "type": "Feature",
            "properties": {
                "label": "202106201723 Learning shouldn't be linear but graph oriented.md",
                "color": "rgb(120.9362957291776, 104.86024569352404, 183.86342703418768)"
            },
            "geometry": {
                "type": "Point",
                "coordinates": [
                    0.8156365487444103,
                    0.27831160644948616
                ]
            }
        },
        {
            "type": "Feature",
            "properties": {
                "label": "202107072122 Be careful about practical book's propaganda.md",
                "color": "rgb(170.86094787549607, 149.66053802533625, 41.76263928575777)"
            },
            "geometry": {
                "type": "Point",
                "coordinates": [
                    0.45597082681301937,
                    0.6042698415641936
                ]
            }
        },
        {
            "type": "Feature",
            "properties": {
                "label": "202107071931 Analytical reading apply on non-fiction.md",
                "color": "rgb(169.3732076773412, 170.87457311070753, 57.471895761089186)"
            },
            "geometry": {
                "type": "Point",
                "coordinates": [
                    0.3539922471258913,
                    0.8310516219374393
                ]
            }
        },
        {
            "type": "Feature",
            "properties": {
                "label": "202106131120 Index notes like a writter.md",
                "color": "rgb(143.83640281281018, 117.61237825964922, 208.0952237784379)"
            },
            "geometry": {
                "type": "Point",
                "coordinates": [
                    0.7854890152051839,
                    0.4307460639580088
                ]
            }
        },
        {
            "type": "Feature",
            "properties": {
                "label": "202106131155 Paradigm shifts comes from little steps toward a direction.md",
                "color": "rgb(155.59820911754585, 99.8966625255278, 150.81059907643544)"
            },
            "geometry": {
                "type": "Point",
                "coordinates": [
                    0.769118101282274,
                    0.13278599800627408
                ]
            }
        },
        {
            "type": "Feature",
            "properties": {
                "label": "202106152243 Creativity and thinking better flourish under restrictions.md",
                "color": "rgb(142.9605208748241, 122.85786389244987, 164.45644540491088)"
            },
            "geometry": {
                "type": "Point",
                "coordinates": [
                    0.7585372428427237,
                    0.2055643590168817
                ]
            }
        },
        {
            "type": "Feature",
            "properties": {
                "label": "202106122248 Storing notes in our slipbox is investing in ourself.md",
                "color": "rgb(136.4862876479441, 99.63922999804146, 241.02879436518367)"
            },
            "geometry": {
                "type": "Point",
                "coordinates": [
                    0.8421441635558186,
                    0.49899240901492403
                ]
            }
        },
        {
            "type": "Feature",
            "properties": {
                "label": "202106122343 The slipbox is a tool to think in, not about.md",
                "color": "rgb(135.87912088798413, 125.85666600806138, 211.7437226146813)"
            },
            "geometry": {
                "type": "Point",
                "coordinates": [
                    0.7095035939601239,
                    0.34274908932471754
                ]
            }
        },
        {
            "type": "Feature",
            "properties": {
                "label": "202106152240 Solutions are just trade offs and can't be perfect.md",
                "color": "rgb(137.179954304234, 108.51752956473416, 165.3531049734118)"
            },
            "geometry": {
                "type": "Point",
                "coordinates": [
                    0.7770911148748357,
                    0.3413742235541875
                ]
            }
        },
        {
            "type": "Feature",
            "properties": {
                "label": "202106270032 Aided and unaided learning.md",
                "color": "rgb(161.01339814232435, 131.54789040159167, 80.00738665500471)"
            },
            "geometry": {
                "type": "Point",
                "coordinates": [
                    0.6217570064898305,
                    0.3554062307751735
                ]
            }
        },
        {
            "type": "Feature",
            "properties": {
                "label": "202107032150 Questioning a book to read more actively.md",
                "color": "rgb(173.62770114034305, 159.50428682778514, 51.653849909629045)"
            },
            "geometry": {
                "type": "Point",
                "coordinates": [
                    0.3917401729256283,
                    0.5845465861122083
                ]
            }
        },
        {
            "type": "Feature",
            "properties": {
                "label": "202107061349 Criticizing a book is a reader obligation toward the author.md",
                "color": "rgb(179.35906728791826, 154.7956935158762, 36.12659226539026)"
            },
            "geometry": {
                "type": "Point",
                "coordinates": [
                    0.45597290988900735,
                    0.7676189166861981
                ]
            }
        },
        {
            "type": "Feature",
            "properties": {
                "label": "202107052315 Grasp author's key sentences and arguments in a book.md",
                "color": "rgb(186.251895448792, 135.04303976827507, 85.02018100439031)"
            },
            "geometry": {
                "type": "Point",
                "coordinates": [
                    0.4916410688063061,
                    0.4371687287834355
                ]
            }
        },
        {
            "type": "Feature",
            "properties": {
                "label": "202106122315 Reading without writing isn't learning.md",
                "color": "rgb(177.9502054141495, 113.22988571564383, 151.97749647055434)"
            },
            "geometry": {
                "type": "Point",
                "coordinates": [
                    0.8926089809431741,
                    0.7212459797231484
                ]
            }
        },
        {
            "type": "Feature",
            "properties": {
                "label": "202106270021 The three kinds of reading.md",
                "color": "rgb(179.37863967223, 158.26238817000237, 35.419825892785624)"
            },
            "geometry": {
                "type": "Point",
                "coordinates": [
                    0.6133829917846522,
                    0.7688384993592833
                ]
            }
        },
        {
            "type": "Feature",
            "properties": {
                "label": "202106131114 Note connections helps find patterns accross non related subjects.md",
                "color": "rgb(143.47517411928806, 123.7006245352529, 197.23307584782876)"
            },
            "geometry": {
                "type": "Point",
                "coordinates": [
                    0.6886091396018337,
                    0.33864163419997917
                ]
            }
        },
        {
            "type": "Feature",
            "properties": {
                "label": "202107052256 Find the important keywords in a book help analysis.md",
                "color": "rgb(197.2993272284127, 139.96148143848353, 60.15609850188444)"
            },
            "geometry": {
                "type": "Point",
                "coordinates": [
                    0.5830936581105782,
                    0.5232142922603242
                ]
            }
        },
        {
            "type": "Feature",
            "properties": {
                "label": "202106152224 Finding creative and functional solutions require abstraction.md",
                "color": "rgb(152.98567696918866, 101.13279853310615, 191.6001444397879)"
            },
            "geometry": {
                "type": "Point",
                "coordinates": [
                    0.8038326547240333,
                    0.4725823216333871
                ]
            }
        },
        {
            "type": "Feature",
            "properties": {
                "label": "202107062058 Read with exigence.md",
                "color": "rgb(168.02153808906002, 146.70576753504474, 66.88354449397848)"
            },
            "geometry": {
                "type": "Point",
                "coordinates": [
                    0.5824593517477221,
                    0.8291333613593727
                ]
            }
        },
        {
            "type": "Feature",
            "properties": {
                "label": "202106152315 Zettelkasten make the act of choosing topic seamless.md",
                "color": "rgb(126.03057391719737, 94.76286872220541, 234.89679630463624)"
            },
            "geometry": {
                "type": "Point",
                "coordinates": [
                    0.8173075442583708,
                    0.29676972418586023
                ]
            }
        },
        {
            "type": "Feature",
            "properties": {
                "label": "202106122321 Forgetting is active inhibition.md",
                "color": "rgb(151.65801115474832, 141.70140892475118, 179.29588717716084)"
            },
            "geometry": {
                "type": "Point",
                "coordinates": [
                    0.7996725627729098,
                    0.2953190373547897
                ]
            }
        },
        {
            "type": "Feature",
            "properties": {
                "label": "202106122246 Smart notes are about thinking beyound actual context.md",
                "color": "rgb(146.3594727083516, 109.53247511312786, 235.24358559888054)"
            },
            "geometry": {
                "type": "Point",
                "coordinates": [
                    0.7398405506247613,
                    0.6747406936864734
                ]
            }
        },
        {
            "type": "Feature",
            "properties": {
                "label": "202106172158 Finding unheard ideas require open-mindness.md",
                "color": "rgb(139.96242772366577, 106.87408086415283, 222.26567597136045)"
            },
            "geometry": {
                "type": "Point",
                "coordinates": [
                    0.7959539410811861,
                    0.4890015119044302
                ]
            }
        },
        {
            "type": "Feature",
            "properties": {
                "label": "202106152227 Knowing failures helps as much as knowing successes.md",
                "color": "rgb(145.22787613217068, 116.07067866247019, 186.44315550396226)"
            },
            "geometry": {
                "type": "Point",
                "coordinates": [
                    0.8660227117216234,
                    0.47956010908388863
                ]
            }
        },
        {
            "type": "Feature",
            "properties": {
                "label": "202107272232 Zettelkasten and digital gardening is syntopical writing.md",
                "color": "rgb(144.48986358294218, 118.79597660447739, 181.7514394519155)"
            },
            "geometry": {
                "type": "Point",
                "coordinates": [
                    0.638417400797619,
                    0.4899842322314516
                ]
            }
        },
        {
            "type": "Feature",
            "properties": {
                "label": "202106242157 There's various level of active reading.md",
                "color": "rgb(168.796604513997, 159.88088199958406, 50.62284967747911)"
            },
            "geometry": {
                "type": "Point",
                "coordinates": [
                    0.6715145774141184,
                    0.7463730559285232
                ]
            }
        },
        {
            "type": "Feature",
            "properties": {
                "label": "202106122221 The slipbox should be agnostic.md",
                "color": "rgb(142.9719786756725, 116.57541501788124, 220.31520122304195)"
            },
            "geometry": {
                "type": "Point",
                "coordinates": [
                    0.7401370132830309,
                    0.4655160128298591
                ]
            }
        },
        {
            "type": "Feature",
            "properties": {
                "label": "202106122244 Reformulating ideas enlarge our set of thinking tools.md",
                "color": "rgb(171.05569156372204, 105.54459184214696, 195.1127249456709)"
            },
            "geometry": {
                "type": "Point",
                "coordinates": [
                    0.9523169761324244,
                    0.6836385947790488
                ]
            }
        },
        {
            "type": "Feature",
            "properties": {
                "label": "202107272303 Geniuses characteristics.md",
                "color": "rgb(167.68764885691957, 130.0767597320736, 77.914018748856)"
            },
            "geometry": {
                "type": "Point",
                "coordinates": [
                    0.5076171350222013,
                    0.6898467124663474
                ]
            }
        },
        {
            "type": "Feature",
            "properties": {
                "label": "Transistors.md",
                "color": "rgb(99.64781653921597, 128.13610397704397, 70.67930110614826)"
            },
            "geometry": {
                "type": "Point",
                "coordinates": [
                    0.7834218811208911,
                    -0.25743413515813673
                ]
            }
        },
        {
            "type": "Feature",
            "properties": {
                "label": "Electronics.md",
                "color": "rgb(66.44110524928084, 132.2543289193221, 126.34112902542353)"
            },
            "geometry": {
                "type": "Point",
                "coordinates": [
                    0.7262080475325015,
                    -0.2882802997354012
                ]
            }
        },
        {
            "type": "Feature",
            "properties": {
                "label": "Logic gates.md",
                "color": "rgb(94.31421555985877, 123.48398093382514, 60.10346811998308)"
            },
            "geometry": {
                "type": "Point",
                "coordinates": [
                    0.8044239305716236,
                    -0.21597481832554252
                ]
            }
        },
        {
            "type": "Feature",
            "properties": {
                "label": "Wiring audio cables.md",
                "color": "rgb(88.86421710024266, 153.2081678315178, 148.1504799447999)"
            },
            "geometry": {
                "type": "Point",
                "coordinates": [
                    0.40069963861257457,
                    -0.3675320430802504
                ]
            }
        },
        {
            "type": "Feature",
            "properties": {
                "label": "Nixie tubes.md",
                "color": "rgb(78.53840435132321, 147.1539293452049, 101.53218227296708)"
            },
            "geometry": {
                "type": "Point",
                "coordinates": [
                    0.5268631541251498,
                    -0.3935381910476165
                ]
            }
        },
        {
            "type": "Feature",
            "properties": {
                "label": "Universaly complete set.md",
                "color": "rgb(109.81249851275285, 127.8650561040302, 74.44328189771176)"
            },
            "geometry": {
                "type": "Point",
                "coordinates": [
                    0.6839295065387052,
                    -0.18751064978496437
                ]
            }
        },
        {
            "type": "Feature",
            "properties": {
                "label": "Removable soundproofed studios.md",
                "color": "rgb(104.57812030173295, 140.92268612980382, 166.11933093997686)"
            },
            "geometry": {
                "type": "Point",
                "coordinates": [
                    0.8155494508086119,
                    -0.3246994134412132
                ]
            }
        },
        {
            "type": "Feature",
            "properties": {
                "label": "Arranging studios in a building.md",
                "color": "rgb(102.0781100267128, 150.73114813292523, 157.4920991309482)"
            },
            "geometry": {
                "type": "Point",
                "coordinates": [
                    0.8213916815256458,
                    -0.22415391922230396
                ]
            }
        },
        {
            "type": "Feature",
            "properties": {
                "label": "Preamp.md",
                "color": "rgb(78.88756994305331, 145.92128358241268, 102.20598111299421)"
            },
            "geometry": {
                "type": "Point",
                "coordinates": [
                    0.1666013946174861,
                    -0.56264062378576
                ]
            }
        },
        {
            "type": "Feature",
            "properties": {
                "label": "Compressor.md",
                "color": "rgb(100.19844488939204, 158.97533047842876, 107.51232147151221)"
            },
            "geometry": {
                "type": "Point",
                "coordinates": [
                    0.6621498210039491,
                    -0.38144851135681984
                ]
            }
        },
        {
            "type": "Feature",
            "properties": {
                "label": "Monitors.md",
                "color": "rgb(100.82518969951467, 153.92117072869553, 113.06083790228698)"
            },
            "geometry": {
                "type": "Point",
                "coordinates": [
                    0.744718522856455,
                    -0.22031348218985616
                ]
            }
        },
        {
            "type": "Feature",
            "properties": {
                "label": "Distortion.md",
                "color": "rgb(96.64802206994607, 148.50026326231605, 116.8865986560958)"
            },
            "geometry": {
                "type": "Point",
                "coordinates": [
                    0.6208614941863683,
                    -0.4069120945690759
                ]
            }
        },
        {
            "type": "Feature",
            "properties": {
                "label": "Microphones.md",
                "color": "rgb(90.54568507790023, 152.52675321377146, 136.1665903592284)"
            },
            "geometry": {
                "type": "Point",
                "coordinates": [
                    0.5920642484765841,
                    -0.3739238361740339
                ]
            }
        },
        {
            "type": "Feature",
            "properties": {
                "label": "Audio interface.md",
                "color": "rgb(65.94255313454998, 136.1883230766049, 104.51331673599698)"
            },
            "geometry": {
                "type": "Point",
                "coordinates": [
                    0.6643816834794957,
                    -0.3682925710565516
                ]
            }
        },
        {
            "type": "Feature",
            "properties": {
                "label": "Top of the line studio gear configurations.md",
                "color": "rgb(96.01244925464192, 150.3748474486261, 137.75802731660596)"
            },
            "geometry": {
                "type": "Point",
                "coordinates": [
                    0.7403785070253969,
                    -0.37132609984038584
                ]
            }
        },
        {
            "type": "Feature",
            "properties": {
                "label": "Books and Binders.md",
                "color": "rgb(73.17861853894844, 114.3194549428282, 154.39863732301984)"
            },
            "geometry": {
                "type": "Point",
                "coordinates": [
                    0.11360276570100722,
                    0.1468841627152176
                ]
            }
        },
        {
            "type": "Feature",
            "properties": {
                "label": "A brief computer history.md",
                "color": "rgb(90.60565188513975, 104.52466890820803, 87.54332236134863)"
            },
            "geometry": {
                "type": "Point",
                "coordinates": [
                    0.5810940291099518,
                    -0.13705672644410552
                ]
            }
        },
        {
            "type": "Feature",
            "properties": {
                "label": "SOLID.md",
                "color": "rgb(113.33609255139923, 114.32884588706149, 94.02352817284431)"
            },
            "geometry": {
                "type": "Point",
                "coordinates": [
                    0.65404944971119,
                    -0.1549504486670072
                ]
            }
        },
        {
            "type": "Feature",
            "properties": {
                "label": "Turing completeness.md",
                "color": "rgb(114.64972886979145, 105.79823623558009, 62.23458383107439)"
            },
            "geometry": {
                "type": "Point",
                "coordinates": [
                    0.7563523646211835,
                    -0.13222014119439723
                ]
            }
        },
        {
            "type": "Feature",
            "properties": {
                "label": "Oriented Object Programming.md",
                "color": "rgb(105.00900642696955, 122.39947662829128, 65.31711603922292)"
            },
            "geometry": {
                "type": "Point",
                "coordinates": [
                    0.4962703506298816,
                    -0.18309475141208992
                ]
            }
        },
        {
            "type": "Feature",
            "properties": {
                "label": "Memex.md",
                "color": "rgb(122.04911393202461, 132.82481322898582, 133.2007352654552)"
            },
            "geometry": {
                "type": "Point",
                "coordinates": [
                    0.49680049409632193,
                    0.06088137204654028
                ]
            }
        },
        {
            "type": "Feature",
            "properties": {
                "label": "202106122320 Differences between Slipbox and Second-brain?.md",
                "color": "rgb(131.92802153971547, 130.14407082955546, 188.8884593588604)"
            },
            "geometry": {
                "type": "Point",
                "coordinates": [
                    0.6959527276950825,
                    0.07246084528058873
                ]
            }
        },
        {
            "type": "Feature",
            "properties": {
                "label": "202109222326 Thoughts fragment.md",
                "color": "rgb(158.15186913318783, 147.9328550334059, 115.94503046509516)"
            },
            "geometry": {
                "type": "Point",
                "coordinates": [
                    0.37316993829992706,
                    0.45843533607053044
                ]
            }
        },
        {
            "type": "Feature",
            "properties": {
                "label": "202106152307 Restrict time on tasks to focus on the real value.md",
                "color": "rgb(158.6829279206697, 105.79691622668702, 148.68669765531956)"
            },
            "geometry": {
                "type": "Point",
                "coordinates": [
                    0.6829168562371858,
                    -0.06657660441005367
                ]
            }
        },
        {
            "type": "Feature",
            "properties": {
                "label": "202107061403 Memex, second brain, PKM, digital garden, what's the differences?.md",
                "color": "rgb(128.21045816556048, 144.84320663678852, 145.81815828832663)"
            },
            "geometry": {
                "type": "Point",
                "coordinates": [
                    0.5606307578927577,
                    -0.10824853363133935
                ]
            }
        },
        {
            "type": "Feature",
            "properties": {
                "label": "202106131148 Practice jazz improvisation by following learning phase principle.md",
                "color": "rgb(155.4433804598319, 114.95818708400267, 159.59213291440165)"
            },
            "geometry": {
                "type": "Point",
                "coordinates": [
                    0.7587024154163873,
                    0.042882890120291416
                ]
            }
        },
        {
            "type": "Feature",
            "properties": {
                "label": "202106152301 Binary code has the best restriction-output ratio.md",
                "color": "rgb(116.2722480413729, 133.28411585736785, 122.70106598028421)"
            },
            "geometry": {
                "type": "Point",
                "coordinates": [
                    0.7320641849579355,
                    0.01394594400912538
                ]
            }
        },
        {
            "type": "Feature",
            "properties": {
                "label": "202106152252 Imposing restrictions to fight the blank page syndrome.md",
                "color": "rgb(135.05684047215001, 132.96374378113325, 182.2751623823974)"
            },
            "geometry": {
                "type": "Point",
                "coordinates": [
                    0.7209892214944316,
                    0.10403061073369849
                ]
            }
        },
        {
            "type": "Feature",
            "properties": {
                "label": "~ What are fleeting notes?.md",
                "color": "rgb(149.71196878271826, 105.40018214108366, 228.03198214277012)"
            },
            "geometry": {
                "type": "Point",
                "coordinates": [
                    0.576988479942337,
                    0.3531170324605769
                ]
            }
        },
        {
            "type": "Feature",
            "properties": {
                "label": "202106172218 Slipbox can make working on multiple manuscrits at the same time seamless.md",
                "color": "rgb(140.3233677500196, 123.50006639609087, 207.26912617566927)"
            },
            "geometry": {
                "type": "Point",
                "coordinates": [
                    0.7489575064953773,
                    0.13854306267415908
                ]
            }
        },
        {
            "type": "Feature",
            "properties": {
                "label": "202109181532 Domestic Cozy.md",
                "color": "rgb(110.58511270448363, 142.6444124227727, 110.02421956001871)"
            },
            "geometry": {
                "type": "Point",
                "coordinates": [
                    0.657195614017928,
                    -0.287550492343768
                ]
            }
        },
        {
            "type": "Feature",
            "properties": {
                "label": "202106172211 Focus isn't what we do but what we don't do.md",
                "color": "rgb(152.0005355528886, 124.87252396619394, 129.20808732185918)"
            },
            "geometry": {
                "type": "Point",
                "coordinates": [
                    0.9453196981903496,
                    0.07526708731574319
                ]
            }
        },
        {
            "type": "Feature",
            "properties": {
                "label": "202107122234 Quadrivium and Trivium.md",
                "color": "rgb(159.17854667049917, 130.0877276397947, 81.46424244654101)"
            },
            "geometry": {
                "type": "Point",
                "coordinates": [
                    0.2130464736359645,
                    -0.14368374116941493
                ]
            }
        },
        {
            "type": "Feature",
            "properties": {
                "label": "202106290027 Make analytical TL;DR of chapters in books.md",
                "color": "rgb(155.5961877105048, 134.35811784684466, 184.32508989111352)"
            },
            "geometry": {
                "type": "Point",
                "coordinates": [
                    0.53641790055944,
                    0.7596426184527487
                ]
            }
        },
        {
            "type": "Feature",
            "properties": {
                "label": "202106122301 Viewing notes toward the Golden Circle framework helps stating on the relevance of ideas.md",
                "color": "rgb(141.81950873242988, 147.4830285582415, 144.55420048245435)"
            },
            "geometry": {
                "type": "Point",
                "coordinates": [
                    0.7940807994525794,
                    0.22289845583610757
                ]
            }
        },
        {
            "type": "Feature",
            "properties": {
                "label": "202106122255 Empty notes are better than no notes at all.md",
                "color": "rgb(143.6247720772507, 128.95954522768835, 193.09147335263836)"
            },
            "geometry": {
                "type": "Point",
                "coordinates": [
                    0.6128940814258614,
                    0.21713789797286168
                ]
            }
        },
        {
            "type": "Feature",
            "properties": {
                "label": "Axioms.md",
                "color": "rgb(171.38830308090752, 107.80121134340614, 84.19551431459354)"
            },
            "geometry": {
                "type": "Point",
                "coordinates": [
                    0.4718054262048593,
                    0.09493167381872275
                ]
            }
        },
        {
            "type": "Feature",
            "properties": {
                "label": "Normal distribution.md",
                "color": "rgb(131.63270390433524, 112.51911173127885, 89.56241313243629)"
            },
            "geometry": {
                "type": "Point",
                "coordinates": [
                    0.6311450801684402,
                    -0.1831309179853076
                ]
            }
        },
        {
            "type": "Feature",
            "properties": {
                "label": "Mixing fundings strategy.md",
                "color": "rgb(119.84768178057578, 109.72947626298367, 139.29884520771537)"
            },
            "geometry": {
                "type": "Point",
                "coordinates": [
                    0.42217027814353414,
                    -0.45862017001092076
                ]
            }
        },
        {
            "type": "Feature",
            "properties": {
                "label": "Seed round.md",
                "color": "rgb(98.12624076860362, 93.16530155001283, 142.7926207444153)"
            },
            "geometry": {
                "type": "Point",
                "coordinates": [
                    0.5835273890679702,
                    -0.4180843532453673
                ]
            }
        },
        {
            "type": "Feature",
            "properties": {
                "label": "Pitch deck.md",
                "color": "rgb(98.97611126443802, 121.7671998730352, 151.0188840547973)"
            },
            "geometry": {
                "type": "Point",
                "coordinates": [
                    0.7561786678327646,
                    -0.3314611891197425
                ]
            }
        },
        {
            "type": "Feature",
            "properties": {
                "label": "Fundraising.md",
                "color": "rgb(128.56330348560934, 118.47812685263983, 139.07840581361972)"
            },
            "geometry": {
                "type": "Point",
                "coordinates": [
                    0.8893818401281469,
                    -0.15621024544189735
                ]
            }
        },
        {
            "type": "Feature",
            "properties": {
                "label": "VC lists.md",
                "color": "rgb(96.83534994871549, 114.13077234493075, 138.2684774940289)"
            },
            "geometry": {
                "type": "Point",
                "coordinates": [
                    0.6567875797130972,
                    -0.34321313059664715
                ]
            }
        },
        {
            "type": "Feature",
            "properties": {
                "label": "Pitching a VC - SaaS case.md",
                "color": "rgb(105.35860972509454, 97.93732029416475, 167.81986694201674)"
            },
            "geometry": {
                "type": "Point",
                "coordinates": [
                    0.34085005875708785,
                    -0.5119841961964278
                ]
            }
        },
        {
            "type": "Feature",
            "properties": {
                "label": "Making underwater videos.md",
                "color": "rgb(97.24875267200747, 207.27428412561682, 135.81052981730818)"
            },
            "geometry": {
                "type": "Point",
                "coordinates": [
                    0.8325377533751843,
                    -0.3655693964071478
                ]
            }
        },
        {
            "type": "Feature",
            "properties": {
                "label": "Gas blending.md",
                "color": "rgb(110.09733713893978, 253.63346068119975, 100.40678185929109)"
            },
            "geometry": {
                "type": "Point",
                "coordinates": [
                    0.7834697200619908,
                    -0.35773215854084467
                ]
            }
        },
        {
            "type": "Feature",
            "properties": {
                "label": "Hyperoxic trimix.md",
                "color": "rgb(105.55277543020648, 246.17316575211612, 78.39731923901886)"
            },
            "geometry": {
                "type": "Point",
                "coordinates": [
                    0.5622479051071467,
                    -0.5956595451876139
                ]
            }
        },
        {
            "type": "Feature",
            "properties": {
                "label": "Normoxic trimix.md",
                "color": "rgb(111.22745752568339, 245.41556265204179, 86.59239031812128)"
            },
            "geometry": {
                "type": "Point",
                "coordinates": [
                    0.5577776022816832,
                    -0.5096672233379129
                ]
            }
        },
        {
            "type": "Feature",
            "properties": {
                "label": "Partial pressure.md",
                "color": "rgb(126.25145335683607, 220.86069396336188, 93.44138190912525)"
            },
            "geometry": {
                "type": "Point",
                "coordinates": [
                    0.551413954264794,
                    -0.2408431646840003
                ]
            }
        },
        {
            "type": "Feature",
            "properties": {
                "label": "Nitrox.md",
                "color": "rgb(107.36048319984727, 247.7875395181522, 82.3175076071588)"
            },
            "geometry": {
                "type": "Point",
                "coordinates": [
                    0.6723748532072328,
                    -0.4341504787482271
                ]
            }
        },
        {
            "type": "Feature",
            "properties": {
                "label": "Hypoxic trimix.md",
                "color": "rgb(113.85980555625548, 245.90020696250602, 92.39290728150215)"
            },
            "geometry": {
                "type": "Point",
                "coordinates": [
                    0.6102873613873235,
                    -0.5582004722348096
                ]
            }
        },
        {
            "type": "Feature",
            "properties": {
                "label": "Trimix.md",
                "color": "rgb(102.77435090656958, 234.66437302772394, 76.13574900532463)"
            },
            "geometry": {
                "type": "Point",
                "coordinates": [
                    0.6957592729538609,
                    -0.5634562089447392
                ]
            }
        },
        {
            "type": "Feature",
            "properties": {
                "label": "Hyperoxia.md",
                "color": "rgb(140.45636017643253, 243.56185273752806, 79.87881749676035)"
            },
            "geometry": {
                "type": "Point",
                "coordinates": [
                    0.5424993410287257,
                    -0.40004631313342065
                ]
            }
        },
        {
            "type": "Feature",
            "properties": {
                "label": "Nitrogen narcosis.md",
                "color": "rgb(138.25790449780177, 243.50848433671797, 114.60033399059583)"
            },
            "geometry": {
                "type": "Point",
                "coordinates": [
                    0.7587577866424056,
                    -0.3733721704707837
                ]
            }
        },
        {
            "type": "Feature",
            "properties": {
                "label": "Decompression sickness.md",
                "color": "rgb(115.80633832227271, 256.0, 87.16419711131557)"
            },
            "geometry": {
                "type": "Point",
                "coordinates": [
                    0.7294593295490296,
                    -0.4576464690227397
                ]
            }
        },
        {
            "type": "Feature",
            "properties": {
                "label": "Scuba diving.md",
                "color": "rgb(120.96784454394967, 231.99057090694637, 94.11497678569106)"
            },
            "geometry": {
                "type": "Point",
                "coordinates": [
                    0.6714789764815461,
                    -0.3535518939183318
                ]
            }
        },
        {
            "type": "Feature",
            "properties": {
                "label": "Redbone - Childish Gambino.md",
                "color": "rgb(104.81449858505277, 135.54612316860698, 168.00798095868643)"
            },
            "geometry": {
                "type": "Point",
                "coordinates": [
                    0.24082610867540252,
                    -0.3484938581863638
                ]
            }
        },
        {
            "type": "Feature",
            "properties": {
                "label": "Rapture - Koffee.md",
                "color": "rgb(100.1163442164092, 134.26959509171448, 153.90367020097855)"
            },
            "geometry": {
                "type": "Point",
                "coordinates": [
                    0.36847392288917374,
                    -0.4496930327830533
                ]
            }
        },
        {
            "type": "Feature",
            "properties": {
                "label": "Giant Steps - John Coltrane.md",
                "color": "rgb(86.18243778613811, 117.60379502326921, 171.47279970469836)"
            },
            "geometry": {
                "type": "Point",
                "coordinates": [
                    0.1929899707076417,
                    -0.22109683040188796
                ]
            }
        },
        {
            "type": "Feature",
            "properties": {
                "label": "Armando's Rhumba - Chick Corea.md",
                "color": "rgb(102.80368612520292, 139.6775601670408, 156.52111332284983)"
            },
            "geometry": {
                "type": "Point",
                "coordinates": [
                    0.08261031184241122,
                    -0.3629823088619925
                ]
            }
        },
        {
            "type": "Feature",
            "properties": {
                "label": "~ Full list of the song I learned - Map of content.md",
                "color": "rgb(100.1960141444641, 149.75309953637267, 175.4609557973675)"
            },
            "geometry": {
                "type": "Point",
                "coordinates": [
                    0.4185306295687716,
                    -0.2320481331008167
                ]
            }
        },
        {
            "type": "Feature",
            "properties": {
                "label": "Nemesis - Aaron Parks.md",
                "color": "rgb(86.6569590095859, 131.38870700257186, 169.90102445141827)"
            },
            "geometry": {
                "type": "Point",
                "coordinates": [
                    0.2305232175375909,
                    -0.23690402846439543
                ]
            }
        },
        {
            "type": "Feature",
            "properties": {
                "label": "All the things you are - Jerome Kern.md",
                "color": "rgb(93.87058230661607, 117.42218368730863, 146.01691653272397)"
            },
            "geometry": {
                "type": "Point",
                "coordinates": [
                    0.2915276100950257,
                    -0.22078675614127932
                ]
            }
        },
        {
            "type": "Feature",
            "properties": {
                "label": "Running Away - Bob Marley and the Wailers.md",
                "color": "rgb(104.47395422673017, 157.2081589103769, 158.18471339486567)"
            },
            "geometry": {
                "type": "Point",
                "coordinates": [
                    0.39198095223994245,
                    -0.35856377308706383
                ]
            }
        },
        {
            "type": "Feature",
            "properties": {
                "label": "Crazy Baldhead - Bob Marley and the Wailers.md",
                "color": "rgb(108.61872067729007, 152.7728030926834, 160.55023095203762)"
            },
            "geometry": {
                "type": "Point",
                "coordinates": [
                    0.30873032825886954,
                    -0.3905053148540321
                ]
            }
        },
        {
            "type": "Feature",
            "properties": {
                "label": "Voyage Autour Du Monde (Tome I) - Dumont D'urville.md",
                "color": "rgb(144.49237474054007, 189.27430319402873, 141.40329470837045)"
            },
            "geometry": {
                "type": "Point",
                "coordinates": [
                    -0.48967318034190493,
                    -0.17532309394006645
                ]
            }
        },
        {
            "type": "Feature",
            "properties": {
                "label": "Plong\u00e9es Autour Du Monde - Jean Bernard Carillet, Olivier Oudon.md",
                "color": "rgb(121.97029831825374, 193.17515450509887, 128.84661393037305)"
            },
            "geometry": {
                "type": "Point",
                "coordinates": [
                    -0.3062027216965727,
                    -0.27119427809686025
                ]
            }
        },
        {
            "type": "Feature",
            "properties": {
                "label": "Encyclop\u00e9die Progressive Ou, Abr\u00e9g\u00e9 Des Sciences, Des Arts Et Des Connaissances Utiles (Tome II) - Mlle M. Forgame.md",
                "color": "rgb(156.0242237944094, 124.38086988386966, 152.03582253421914)"
            },
            "geometry": {
                "type": "Point",
                "coordinates": [
                    -0.4537918386241196,
                    0.02657179413252595
                ]
            }
        },
        {
            "type": "Feature",
            "properties": {
                "label": "Les Voyages D'Ulysse - Mythologie.md",
                "color": "rgb(127.92734551595434, 156.3249542241074, 130.12904080727452)"
            },
            "geometry": {
                "type": "Point",
                "coordinates": [
                    -0.7783660302607547,
                    0.008906729719696629
                ]
            }
        },
        {
            "type": "Feature",
            "properties": {
                "label": "Rap Ta France - Jos\u00e9 Louis Bocquet, Philippe Pierre Adolphe.md",
                "color": "rgb(122.74363666657884, 117.7010231892954, 148.6861201903329)"
            },
            "geometry": {
                "type": "Point",
                "coordinates": [
                    -0.7467187967857722,
                    -0.10749363047651578
                ]
            }
        },
        {
            "type": "Feature",
            "properties": {
                "label": "Dilemmes De Prisonniers Et Strat\u00e9gies Dominantes : La Th\u00e9orie Des Jeux #7 - Fernando Corbal\u00e1n.md",
                "color": "rgb(151.30002744256882, 112.35680110386299, 125.58972049319621)"
            },
            "geometry": {
                "type": "Point",
                "coordinates": [
                    -0.400105930097032,
                    -0.024100048459321077
                ]
            }
        },
        {
            "type": "Feature",
            "properties": {
                "label": "Vie Priv\u00e9e De Louis Xv   Tome Premier - Unknown.md",
                "color": "rgb(146.72195807689155, 132.93436975928387, 135.1571526794574)"
            },
            "geometry": {
                "type": "Point",
                "coordinates": [
                    -0.7740252843995736,
                    -0.006765683081604541
                ]
            }
        },
        {
            "type": "Feature",
            "properties": {
                "label": "Tout Alice - Lewis Carroll.md",
                "color": "rgb(106.39641692201359, 102.52032555096443, 104.94029647276263)"
            },
            "geometry": {
                "type": "Point",
                "coordinates": [
                    -0.7292517036022007,
                    0.17084228071166432
                ]
            }
        },
        {
            "type": "Feature",
            "properties": {
                "label": "The Smart Thinking Book - Kevin Duncan .md",
                "color": "rgb(94.84531214047433, 104.92155805076766, 126.79730402508483)"
            },
            "geometry": {
                "type": "Point",
                "coordinates": [
                    -0.06794462357943712,
                    0.5585368832410311
                ]
            }
        },
        {
            "type": "Feature",
            "properties": {
                "label": "Devenez Un Grand Orateur Ted   Les 9 Secrets Des Prises De Paroles Les Plus Brillantes - Carmine Gallo.md",
                "color": "rgb(145.61412595495707, 106.2797650608464, 129.50637786346377)"
            },
            "geometry": {
                "type": "Point",
                "coordinates": [
                    -0.3011948744319331,
                    0.07337740168769187
                ]
            }
        },
        {
            "type": "Feature",
            "properties": {
                "label": "Th\u00e9\u00e2tre Complet Tom 2 - William Shakespeare.md",
                "color": "rgb(132.25130533580963, 119.52318863472851, 107.96310345513754)"
            },
            "geometry": {
                "type": "Point",
                "coordinates": [
                    -0.5997726607185497,
                    0.04091868638761676
                ]
            }
        },
        {
            "type": "Feature",
            "properties": {
                "label": "La Lecture Rapide - Tony Buzan.md",
                "color": "rgb(128.8799975693372, 103.8515380706506, 123.21303780853549)"
            },
            "geometry": {
                "type": "Point",
                "coordinates": [
                    -0.5362797455354673,
                    0.3271647031770667
                ]
            }
        },
        {
            "type": "Feature",
            "properties": {
                "label": "La Vie Secr\u00e8te Des Nombres : Les Bizarreries Des Math\u00e9matiques #27 - Joaqu\u00edn Navarro.md",
                "color": "rgb(114.67760812377163, 108.97132748157422, 139.39025871788652)"
            },
            "geometry": {
                "type": "Point",
                "coordinates": [
                    -0.6488203239741335,
                    0.06026266721817634
                ]
            }
        },
        {
            "type": "Feature",
            "properties": {
                "label": "Construction 4.0 - Karim N\u2019essaie, Christian Grellier, Edward Woods .md",
                "color": "rgb(104.77391130233478, 100.8505021626938, 110.02007455901)"
            },
            "geometry": {
                "type": "Point",
                "coordinates": [
                    -0.6083471277050039,
                    0.13840128575806127
                ]
            }
        },
        {
            "type": "Feature",
            "properties": {
                "label": "Tout Le Monde N'a Pas Eu La Chance De Rater Ses \u00e9tudes - Olivier Roland.md",
                "color": "rgb(143.79775498650153, 96.8484549700944, 122.0240216924848)"
            },
            "geometry": {
                "type": "Point",
                "coordinates": [
                    -0.38449010474143164,
                    0.13756163795865659
                ]
            }
        },
        {
            "type": "Feature",
            "properties": {
                "label": "Sur Le R\u00eave - Sigmund Freud.md",
                "color": "rgb(137.27200921526907, 128.42020500279887, 135.35694558304812)"
            },
            "geometry": {
                "type": "Point",
                "coordinates": [
                    -0.6223754779009305,
                    0.14688349372499107
                ]
            }
        },
        {
            "type": "Feature",
            "properties": {
                "label": "Le Royaume Des Animaux 21 : Python Rous - Maurice Burton, Robert Burton .md",
                "color": "rgb(137.16678315263547, 230.4804876045265, 164.0309978149815)"
            },
            "geometry": {
                "type": "Point",
                "coordinates": [
                    -0.8121877185424015,
                    -0.17843247958066258
                ]
            }
        },
        {
            "type": "Feature",
            "properties": {
                "label": "The 4-hour Workweek - Tim Ferris.md",
                "color": "rgb(141.05504356353768, 102.06932837099868, 115.82236717400158)"
            },
            "geometry": {
                "type": "Point",
                "coordinates": [
                    0.16715948334498623,
                    0.11662325132082912
                ]
            }
        },
        {
            "type": "Feature",
            "properties": {
                "label": "Les Onze Lois De La R\u00e9ussite - Anthony Robbins.md",
                "color": "rgb(129.91578132853664, 122.24971511213064, 128.54101273389776)"
            },
            "geometry": {
                "type": "Point",
                "coordinates": [
                    -0.5393313397888727,
                    0.19506986800068812
                ]
            }
        },
        {
            "type": "Feature",
            "properties": {
                "label": "Business   Les Grandes Id\u00e9es Tout Simplement  - Various.md",
                "color": "rgb(120.8324318693098, 90.14426946800874, 130.63357787002013)"
            },
            "geometry": {
                "type": "Point",
                "coordinates": [
                    -0.5056036855573592,
                    0.08879828800944138
                ]
            }
        },
        {
            "type": "Feature",
            "properties": {
                "label": "Le Mythe De La Singularit\u00e9, Faut Il Craindre L\u2019intelligence Artificielle ? - Jean Gabriel Ganascia.md",
                "color": "rgb(113.8810187776513, 95.82156327581913, 96.2176589106219)"
            },
            "geometry": {
                "type": "Point",
                "coordinates": [
                    -0.4467343227672941,
                    0.026515694702163452
                ]
            }
        },
        {
            "type": "Feature",
            "properties": {
                "label": "Voyages Extraordinaires : Les Indes Noires  - Jules Verne .md",
                "color": "rgb(121.0095950982576, 161.69113045783502, 142.1639299489138)"
            },
            "geometry": {
                "type": "Point",
                "coordinates": [
                    -0.7486285176595999,
                    -0.045661937218524136
                ]
            }
        },
        {
            "type": "Feature",
            "properties": {
                "label": "Les Oracles De Nostradamus : Tome 2 - Nostradamus.md",
                "color": "rgb(116.09927300828419, 125.19535267947418, 115.19481010620198)"
            },
            "geometry": {
                "type": "Point",
                "coordinates": [
                    -0.6759788879739522,
                    0.14562952879939733
                ]
            }
        },
        {
            "type": "Feature",
            "properties": {
                "label": "Le Papillon Et La Tornade : Th\u00e9orie Du Chaos Et Changement Climatique #28 - Carlos Madrid.md",
                "color": "rgb(125.25693869246118, 119.08755238750734, 147.44400958876224)"
            },
            "geometry": {
                "type": "Point",
                "coordinates": [
                    -0.5629889274962762,
                    -0.015008419752196599
                ]
            }
        },