{
    "type": "FeatureCollection",
    "features": [
        {
            "type": "Feature",
            "properties": {
                "label": "Create a programming language.md",
                "color": "rgb(81.73965200159348, 104.5376076451973, 114.66069337248781)"
            },
            "geometry": {
                "type": "Point",
                "coordinates": [
                    0.6508793074412389,
                    -0.033699600746137245
                ]
            }
        },
        {
            "type": "Feature",
            "properties": {
                "label": "Programming languages.md",
                "color": "rgb(107.62245639580043, 105.31064510714481, 113.1188889903056)"
            },
            "geometry": {
                "type": "Point",
                "coordinates": [
                    0.6902856690708616,
                    0.028190793750094496
                ]
            }
        },
        {
            "type": "Feature",
            "properties": {
                "label": "Inspectional reading.md",
                "color": "rgb(173.59494889671709, 168.48767749429754, 50.91638489901291)"
            },
            "geometry": {
                "type": "Point",
                "coordinates": [
                    0.55289100250112,
                    0.6891958319415228
                ]
            }
        },
        {
            "type": "Feature",
            "properties": {
                "label": "Reading philosophy.md",
                "color": "rgb(169.40251031128838, 145.06244254198157, 55.198812161959765)"
            },
            "geometry": {
                "type": "Point",
                "coordinates": [
                    0.3469958856601648,
                    0.6046562489934599
                ]
            }
        },
        {
            "type": "Feature",
            "properties": {
                "label": "Reading imaginary.md",
                "color": "rgb(168.81192739836945, 171.3592307724354, 53.137317409436505)"
            },
            "geometry": {
                "type": "Point",
                "coordinates": [
                    0.49161033304810625,
                    0.7147801293746994
                ]
            }
        },
        {
            "type": "Feature",
            "properties": {
                "label": "Reading technics should differ depending on book type.md",
                "color": "rgb(168.26538566102826, 150.73900938414508, 81.46031236053892)"
            },
            "geometry": {
                "type": "Point",
                "coordinates": [
                    0.6160317310440352,
                    0.8613115456958125
                ]
            }
        },
        {
            "type": "Feature",
            "properties": {
                "label": "Elementary reading.md",
                "color": "rgb(178.89627890518935, 161.72784692771643, 55.31422377843401)"
            },
            "geometry": {
                "type": "Point",
                "coordinates": [
                    0.5660596613232967,
                    0.4630843670756987
                ]
            }
        },
        {
            "type": "Feature",
            "properties": {
                "label": "Re-reading books.md",
                "color": "rgb(165.97784126788355, 151.36166165880476, 91.7401097080375)"
            },
            "geometry": {
                "type": "Point",
                "coordinates": [
                    0.6478076517672923,
                    0.7159584113766639
                ]
            }
        },
        {
            "type": "Feature",
            "properties": {
                "label": "Evaluate a book.md",
                "color": "rgb(154.70512794546764, 142.325485342932, 80.57751120130852)"
            },
            "geometry": {
                "type": "Point",
                "coordinates": [
                    0.4783821038556723,
                    0.7045542855741204
                ]
            }
        },
        {
            "type": "Feature",
            "properties": {
                "label": "Syntopical reading.md",
                "color": "rgb(181.97423067303242, 160.3386467634622, 75.92557909180053)"
            },
            "geometry": {
                "type": "Point",
                "coordinates": [
                    0.4291300764997356,
                    0.5466205268546342
                ]
            }
        },
        {
            "type": "Feature",
            "properties": {
                "label": "The four levels of reading.md",
                "color": "rgb(177.0338273383185, 165.04312540988158, 42.369298362452085)"
            },
            "geometry": {
                "type": "Point",
                "coordinates": [
                    0.6176848246315828,
                    0.8724541797020924
                ]
            }
        },
        {
            "type": "Feature",
            "properties": {
                "label": "Reading science and mathematics.md",
                "color": "rgb(174.43537506885468, 152.68352906506834, 68.64693990710987)"
            },
            "geometry": {
                "type": "Point",
                "coordinates": [
                    0.49821971711897883,
                    0.6450560812425766
                ]
            }
        },
        {
            "type": "Feature",
            "properties": {
                "label": "Speed reading.md",
                "color": "rgb(178.03118396129625, 143.71218657931473, 91.35633373515749)"
            },
            "geometry": {
                "type": "Point",
                "coordinates": [
                    0.6808072284432333,
                    0.5805245750234659
                ]
            }
        },
        {
            "type": "Feature",
            "properties": {
                "label": "Selective reading.md",
                "color": "rgb(185.96242532259083, 143.2963989620915, 67.23400614865959)"
            },
            "geometry": {
                "type": "Point",
                "coordinates": [
                    0.6004298361362094,
                    0.6483039620352017
                ]
            }
        },
        {
            "type": "Feature",
            "properties": {
                "label": "Reading history.md",
                "color": "rgb(170.50522589364746, 146.27075496270143, 84.34833092587982)"
            },
            "geometry": {
                "type": "Point",
                "coordinates": [
                    0.5979420381189886,
                    0.4869545556667828
                ]
            }
        },
        {
            "type": "Feature",
            "properties": {
                "label": "Reading biographies.md",
                "color": "rgb(144.0132203812093, 168.65190257227815, 66.86922706856441)"
            },
            "geometry": {
                "type": "Point",
                "coordinates": [
                    0.4333332857991595,
                    0.2914364156968744
                ]
            }
        },
        {
            "type": "Feature",
            "properties": {
                "label": "Reading digests.md",
                "color": "rgb(169.41198709432544, 170.66254729423366, 81.38575712249559)"
            },
            "geometry": {
                "type": "Point",
                "coordinates": [
                    0.48763929387271787,
                    0.7240373217643754
                ]
            }
        },
        {
            "type": "Feature",
            "properties": {
                "label": "Reading news.md",
                "color": "rgb(170.5913530407916, 164.96228035504473, 54.18527179504564)"
            },
            "geometry": {
                "type": "Point",
                "coordinates": [
                    0.619380434003411,
                    0.3734952995551472
                ]
            }
        },
        {
            "type": "Feature",
            "properties": {
                "label": "Analytical reading.md",
                "color": "rgb(182.64518745057495, 161.21518501192375, 38.388015826771905)"
            },
            "geometry": {
                "type": "Point",
                "coordinates": [
                    0.519353542277617,
                    0.8637597430741627
                ]
            }
        },
        {
            "type": "Feature",
            "properties": {
                "label": "Augmented reality.md",
                "color": "rgb(77.23477648970885, 136.01928061885346, 50.14323031754266)"
            },
            "geometry": {
                "type": "Point",
                "coordinates": [
                    0.5787202777620959,
                    -0.31480553337737305
                ]
            }
        },
        {
            "type": "Feature",
            "properties": {
                "label": "AR devices.md",
                "color": "rgb(50.89110882912175, 118.67134551817249, 57.348705571642995)"
            },
            "geometry": {
                "type": "Point",
                "coordinates": [
                    0.6588660883998273,
                    -0.35007203749558974
                ]
            }
        },
        {
            "type": "Feature",
            "properties": {
                "label": "Mixed reality.md",
                "color": "rgb(64.11664632144934, 147.12660435091442, 48.97811912490813)"
            },
            "geometry": {
                "type": "Point",
                "coordinates": [
                    0.5662132187375324,
                    -0.2849455275531924
                ]
            }
        },
        {
            "type": "Feature",
            "properties": {
                "label": "No-code tools for AR.md",
                "color": "rgb(46.53847260195245, 122.9857224403518, 110.05944759186256)"
            },
            "geometry": {
                "type": "Point",
                "coordinates": [
                    0.63656415728566,
                    -0.3135269312381239
                ]
            }
        },
        {
            "type": "Feature",
            "properties": {
                "label": "Video.md",
                "color": "rgb(93.16171933913796, 140.0500367847247, 161.94205851471438)"
            },
            "geometry": {
                "type": "Point",
                "coordinates": [
                    0.8439801843080583,
                    -0.13132647452072344
                ]
            }
        },
        {
            "type": "Feature",
            "properties": {
                "label": "Premiere Pro.md",
                "color": "rgb(88.06977779219335, 157.5949805722171, 165.64095819529138)"
            },
            "geometry": {
                "type": "Point",
                "coordinates": [
                    0.7875289531338723,
                    -0.30910456838433664
                ]
            }
        },
        {
            "type": "Feature",
            "properties": {
                "label": "Make great videos.md",
                "color": "rgb(81.33871379792862, 142.4524013481285, 157.42710728502036)"
            },
            "geometry": {
                "type": "Point",
                "coordinates": [
                    0.8862358519182614,
                    -0.2037367716003865
                ]
            }
        },
        {
            "type": "Feature",
            "properties": {
                "label": "Hyperinflation.md",
                "color": "rgb(148.35918682931555, 138.62289130352573, 84.40775268615567)"
            },
            "geometry": {
                "type": "Point",
                "coordinates": [
                    0.48750146495212987,
                    -0.4087069083792803
                ]
            }
        },
        {
            "type": "Feature",
            "properties": {
                "label": "Printing more money could create inflation.md",
                "color": "rgb(128.25698392977506, 155.42478564687994, 100.83579838226667)"
            },
            "geometry": {
                "type": "Point",
                "coordinates": [
                    0.6202821482812374,
                    -0.17531893724455294
                ]
            }
        },
        {
            "type": "Feature",
            "properties": {
                "label": "Music theory.md",
                "color": "rgb(141.20246097355704, 146.15695458958055, 161.24749119083256)"
            },
            "geometry": {
                "type": "Point",
                "coordinates": [
                    0.45682039758583226,
                    0.004734458425494581
                ]
            }
        },
        {
            "type": "Feature",
            "properties": {
                "label": "One drop pattern.md",
                "color": "rgb(129.60669941498483, 139.7073129830431, 157.98802233302195)"
            },
            "geometry": {
                "type": "Point",
                "coordinates": [
                    0.6443662526235776,
                    -0.34874738713952286
                ]
            }
        },
        {
            "type": "Feature",
            "properties": {
                "label": "Circle of fifth.md",
                "color": "rgb(132.3354033180864, 133.99009276269672, 140.9453341056086)"
            },
            "geometry": {
                "type": "Point",
                "coordinates": [
                    0.6949518103088885,
                    -0.11026487785856572
                ]
            }
        },
        {
            "type": "Feature",
            "properties": {
                "label": "Harmonic Minor.md",
                "color": "rgb(109.74465887797305, 149.8300493629866, 131.69828095725507)"
            },
            "geometry": {
                "type": "Point",
                "coordinates": [
                    0.5488884894026714,
                    -0.26835252103178636
                ]
            }
        },
        {
            "type": "Feature",
            "properties": {
                "label": "Contrapuntal music (in film).md",
                "color": "rgb(157.87857484836871, 138.96701224469624, 125.83631039716124)"
            },
            "geometry": {
                "type": "Point",
                "coordinates": [
                    0.5369862688626248,
                    -0.25477072114204136
                ]
            }
        },
        {
            "type": "Feature",
            "properties": {
                "label": "Chords progressions.md",
                "color": "rgb(124.50980507978691, 138.31152193228766, 149.1728338109446)"
            },
            "geometry": {
                "type": "Point",
                "coordinates": [
                    0.4894139295264829,
                    -0.25859536596300164
                ]
            }
        },
        {
            "type": "Feature",
            "properties": {
                "label": "Freemium.md",
                "color": "rgb(117.38837966120198, 110.45955129331972, 121.67775290123751)"
            },
            "geometry": {
                "type": "Point",
                "coordinates": [
                    0.7837589770138926,
                    -0.36465394951632757
                ]
            }
        },
        {
            "type": "Feature",
            "properties": {
                "label": "Writing on Medium.md",
                "color": "rgb(97.52726515750132, 125.13010953172774, 138.97009288420864)"
            },
            "geometry": {
                "type": "Point",
                "coordinates": [
                    0.7477219670686341,
                    -0.052491408209485245
                ]
            }
        },
        {
            "type": "Feature",
            "properties": {
                "label": "Newsletters.md",
                "color": "rgb(111.56597552994212, 115.98946926265045, 165.9330893891717)"
            },
            "geometry": {
                "type": "Point",
                "coordinates": [
                    0.5906225547387811,
                    -0.2823840544866688
                ]
            }
        },
        {
            "type": "Feature",
            "properties": {
                "label": "Somatosensory.md",
                "color": "rgb(147.93724929555196, 149.1659483369221, 90.30450715304602)"
            },
            "geometry": {
                "type": "Point",
                "coordinates": [
                    0.5429688314167697,
                    -0.19542972346160734
                ]
            }
        },
        {
            "type": "Feature",
            "properties": {
                "label": "Working memory.md",
                "color": "rgb(161.94384425384342, 124.37250819675671, 143.64418627091183)"
            },
            "geometry": {
                "type": "Point",
                "coordinates": [
                    0.8542108110184948,
                    0.19830657431391768
                ]
            }
        },
        {
            "type": "Feature",
            "properties": {
                "label": "Hardware.md",
                "color": "rgb(42.254844417575015, 104.02406941744505, 111.28291335349715)"
            },
            "geometry": {
                "type": "Point",
                "coordinates": [
                    0.5852678573343062,
                    -0.30553757058732317
                ]
            }
        },
        {
            "type": "Feature",
            "properties": {
                "label": "DSP (Digital Signal Processor).md",
                "color": "rgb(63.872174798597925, 122.81688137393726, 91.47558217977874)"
            },
            "geometry": {
                "type": "Point",
                "coordinates": [
                    0.6561599151370774,
                    -0.42632337005095394
                ]
            }
        },
        {
            "type": "Feature",
            "properties": {
                "label": "ALU (Arithmetic Logic Unit).md",
                "color": "rgb(76.69693249312505, 105.68208560802842, 56.83827885434535)"
            },
            "geometry": {
                "type": "Point",
                "coordinates": [
                    0.41314253652318284,
                    -0.30727068438096167
                ]
            }
        },
        {
            "type": "Feature",
            "properties": {
                "label": "Raspberry Pi.md",
                "color": "rgb(34.278320430716605, 92.88578765186813, 75.45886202931123)"
            },
            "geometry": {
                "type": "Point",
                "coordinates": [
                    0.6048183638078295,
                    -0.4790218965403485
                ]
            }
        },
        {
            "type": "Feature",
            "properties": {
                "label": "ARM (Advanced RISC Machines).md",
                "color": "rgb(53.59128589939425, 114.60912530394835, 69.29353223996117)"
            },
            "geometry": {
                "type": "Point",
                "coordinates": [
                    0.6381699845261848,
                    -0.4812498247166114
                ]
            }
        },
        {
            "type": "Feature",
            "properties": {
                "label": "RAM (Random-Access Memory).md",
                "color": "rgb(118.37556579337355, 114.22370029272831, 98.90497335801544)"
            },
            "geometry": {
                "type": "Point",
                "coordinates": [
                    0.679401626155932,
                    -0.15273133590266885
                ]
            }
        },
        {
            "type": "Feature",
            "properties": {
                "label": "Places.md",
                "color": "rgb(144.1027846933524, 108.56396258617154, 151.30634148521477)"
            },
            "geometry": {
                "type": "Point",
                "coordinates": [
                    0.30513240209137527,
                    -0.4731242715107927
                ]
            }
        },
        {
            "type": "Feature",
            "properties": {
                "label": "Third places.md",
                "color": "rgb(145.19463006814476, 136.35124331869784, 183.78165858210156)"
            },
            "geometry": {
                "type": "Point",
                "coordinates": [
                    0.30959385718494475,
                    -0.18817386305259914
                ]
            }
        },
        {
            "type": "Feature",
            "properties": {
                "label": "State controlled saving plans.md",
                "color": "rgb(127.92393718566647, 120.97215116577712, 129.83005320764659)"
            },
            "geometry": {
                "type": "Point",
                "coordinates": [
                    0.1935833928044686,
                    -0.3483459063831813
                ]
            }
        },
        {
            "type": "Feature",
            "properties": {
                "label": "Stock markets.md",
                "color": "rgb(84.05964773873922, 97.62425670341153, 109.33153634206465)"
            },
            "geometry": {
                "type": "Point",
                "coordinates": [
                    0.6241232226325882,
                    -0.16603782100706813
                ]
            }
        },
        {
            "type": "Feature",
            "properties": {
                "label": "Real estate.md",
                "color": "rgb(102.70882632595038, 115.22248008060085, 96.41560492264051)"
            },
            "geometry": {
                "type": "Point",
                "coordinates": [
                    0.5521769244588236,
                    -0.1609790985392947
                ]
            }
        },
        {
            "type": "Feature",
            "properties": {
                "label": "Old books.md",
                "color": "rgb(107.38173434264601, 117.9163781243764, 98.7015191741199)"
            },
            "geometry": {
                "type": "Point",
                "coordinates": [
                    0.12856844527729147,
                    0.2283130046369656
                ]
            }
        },
        {
            "type": "Feature",
            "properties": {
                "label": "Cryptocurrencies.md",
                "color": "rgb(55.80240971400778, 115.14915947011556, 110.32863691088713)"
            },
            "geometry": {
                "type": "Point",
                "coordinates": [
                    0.6061605257677185,
                    -0.31384012129123223
                ]
            }
        },
        {
            "type": "Feature",
            "properties": {
                "label": "Exchange Traded Funds (ETF).md",
                "color": "rgb(86.78314654005433, 98.29771576844738, 96.89818060567686)"
            },
            "geometry": {
                "type": "Point",
                "coordinates": [
                    0.5197782328426406,
                    -0.3751510226096428
                ]
            }
        },
        {
            "type": "Feature",
            "properties": {
                "label": "Saving habit.md",
                "color": "rgb(131.1205190240318, 149.1212745607475, 155.96632125315574)"
            },
            "geometry": {
                "type": "Point",
                "coordinates": [
                    0.768847837230807,
                    -0.09512579252327341
                ]
            }
        },
        {
            "type": "Feature",
            "properties": {
                "label": "Emergency fund.md",
                "color": "rgb(119.76268046176538, 137.6215368539824, 120.43684073638589)"
            },
            "geometry": {
                "type": "Point",
                "coordinates": [
                    0.7541477155653525,
                    -0.18754425903285774
                ]
            }
        },
        {
            "type": "Feature",
            "properties": {
                "label": "My investment strategy.md",
                "color": "rgb(117.9953664820264, 126.91742890405658, 126.42309349063169)"
            },
            "geometry": {
                "type": "Point",
                "coordinates": [
                    0.6672050276862137,
                    -0.16257313507398963
                ]
            }
        },
        {
            "type": "Feature",
            "properties": {
                "label": "Personal finances.md",
                "color": "rgb(133.52075565488957, 126.30463442923329, 153.42085889501163)"
            },
            "geometry": {
                "type": "Point",
                "coordinates": [
                    0.6821488966865291,
                    -0.1477025247332389
                ]
            }
        },
        {
            "type": "Feature",
            "properties": {
                "label": "AudioSet dataset.md",
                "color": "rgb(70.89725616252761, 113.6737750234027, 137.3124479928249)"
            },
            "geometry": {
                "type": "Point",
                "coordinates": [
                    0.4002879551774027,
                    -0.3737292709120977
                ]
            }
        },
        {
            "type": "Feature",
            "properties": {
                "label": "Sound classification.md",
                "color": "rgb(77.82895679357425, 112.30093248154353, 112.04836207833684)"
            },
            "geometry": {
                "type": "Point",
                "coordinates": [
                    0.6322237689774098,
                    -0.337843004638128
                ]
            }
        },
        {
            "type": "Feature",
            "properties": {
                "label": "Mel Spectogram.md",
                "color": "rgb(115.55376743028467, 146.82506804373185, 130.91323444436588)"
            },
            "geometry": {
                "type": "Point",
                "coordinates": [
                    0.5242099056555191,
                    -0.2908787164716018
                ]
            }
        },
        {
            "type": "Feature",
            "properties": {
                "label": "Welcome in my mind \ud83e\udde0.md",
                "color": "rgb(93.60897442322153, 133.96321196792408, 171.00193789249454)"
            },
            "geometry": {
                "type": "Point",
                "coordinates": [
                    0.4407199144721446,
                    -0.2601106591580844
                ]
            }
        },
        {
            "type": "Feature",
            "properties": {
                "label": "Soundproofing.md",
                "color": "rgb(118.23838099760519, 143.4473150695126, 155.746365414075)"
            },
            "geometry": {
                "type": "Point",
                "coordinates": [
                    0.6872961848751357,
                    -0.26483285496129794
                ]
            }
        },
        {
            "type": "Feature",
            "properties": {
                "label": "The zettelkasten method and how to take smart notes.md",
                "color": "rgb(119.47588377286193, 91.96691833252096, 256.0)"
            },
            "geometry": {
                "type": "Point",
                "coordinates": [
                    0.8084443734128921,
                    0.4520987723125048
                ]
            }
        },
        {
            "type": "Feature",
            "properties": {
                "label": "Fleeting notes to capture thoughts.md",
                "color": "rgb(126.58133461557533, 97.97615566461155, 243.9276561194121)"
            },
            "geometry": {
                "type": "Point",
                "coordinates": [
                    0.7857384289355915,
                    0.2812218818207833
                ]
            }
        },
        {
            "type": "Feature",
            "properties": {
                "label": "Zettelkasten for musicians.md",
                "color": "rgb(103.53497405966797, 103.1407281519628, 252.564390822981)"
            },
            "geometry": {
                "type": "Point",
                "coordinates": [
                    0.7706075644659652,
                    0.22890666128964934
                ]
            }
        },
        {
            "type": "Feature",
            "properties": {
                "label": "Open-closed principle makes Zettelkasten closer to its original design.md",
                "color": "rgb(116.54050643422225, 119.35273734112373, 192.1489693464266)"
            },
            "geometry": {
                "type": "Point",
                "coordinates": [
                    0.734081309558805,
                    0.14009364652072548
                ]
            }
        },
        {
            "type": "Feature",
            "properties": {
                "label": "Litterature note to quote and reference content.md",
                "color": "rgb(151.34527258891245, 103.25335227754596, 218.1038536641415)"
            },
            "geometry": {
                "type": "Point",
                "coordinates": [
                    0.5796930652089738,
                    0.5032453553245477
                ]
            }
        },
        {
            "type": "Feature",
            "properties": {
                "label": "Writing is the only thing that count.md",
                "color": "rgb(160.74351737555267, 114.09213039448228, 216.154620983558)"
            },
            "geometry": {
                "type": "Point",
                "coordinates": [
                    0.8890239317307422,
                    0.675307486814729
                ]
            }
        },
        {
            "type": "Feature",
            "properties": {
                "label": "Permanent notes to link and develop.md",
                "color": "rgb(125.8162810040651, 110.09263689188498, 235.14550932373936)"
            },
            "geometry": {
                "type": "Point",
                "coordinates": [
                    0.7404307583250603,
                    0.39628381573705984
                ]
            }
        },
        {
            "type": "Feature",
            "properties": {
                "label": "202107062037 Critics need rhetoric.md",
                "color": "rgb(184.2518201017006, 152.97708234269118, 38.940760629667054)"
            },
            "geometry": {
                "type": "Point",
                "coordinates": [
                    0.4760805069104838,
                    0.652682098605118
                ]
            }
        },
        {
            "type": "Feature",
            "properties": {
                "label": "202107071942 Books never solve practical problems, action does.md",
                "color": "rgb(158.10439747449445, 146.77881438181822, 50.19861466431024)"
            },
            "geometry": {
                "type": "Point",
                "coordinates": [
                    0.41385352772909884,
                    0.880341580898705
                ]
            }
        },
        {
            "type": "Feature",
            "properties": {
                "label": "202106122210 Expert can rely on their intuition.md",
                "color": "rgb(138.05501575711935, 124.38596050428036, 177.97894081497205)"
            },
            "geometry": {
                "type": "Point",
                "coordinates": [
                    0.801632409836337,
                    0.44568263357288396
                ]
            }
        },
        {
            "type": "Feature",
            "properties": {
                "label": "202107032023 Don't be an expert, make unexpected connections instead.md",
                "color": "rgb(122.80712475361591, 112.80665540188846, 173.04590455089755)"
            },
            "geometry": {
                "type": "Point",
                "coordinates": [
                    0.9399025042906674,
                    0.3666667816505727
                ]
            }
        },
        {
            "type": "Feature",
            "properties": {
                "label": "202106201717 Avoid immobility by starting projects as drafts.md",
                "color": "rgb(144.76360034757792, 116.02714821945001, 191.8496673465486)"
            },
            "geometry": {
                "type": "Point",
                "coordinates": [
                    0.9827410422510559,
                    0.32926723945033376
                ]
            }
        },
        {
            "type": "Feature",
            "properties": {
                "label": "202107062101 Don't read with a dictionnary.md",
                "color": "rgb(188.79899035747843, 133.99808333827878, 111.27630991408546)"
            },
            "geometry": {
                "type": "Point",
                "coordinates": [
                    0.43062188445004684,
                    0.4321930404293794
                ]
            }
        },
        {
            "type": "Feature",
            "properties": {
                "label": "202106131144 Learning has multiple phases.md",
                "color": "rgb(171.81091440961092, 108.4594043564868, 181.02962279198465)"
            },
            "geometry": {
                "type": "Point",
                "coordinates": [
                    0.8098815774145709,
                    0.5034871415188569
                ]
            }
        },
        {
            "type": "Feature",
            "properties": {
                "label": "202107061345 Interpretative reading.md",
                "color": "rgb(178.8851956000856, 168.2127241782231, 50.24073141279911)"
            },
            "geometry": {
                "type": "Point",
                "coordinates": [
                    0.41922206204918017,
                    0.7994485069805425
                ]
            }
        },
        {
            "type": "Feature",
            "properties": {
                "label": "202106152233 Thinking about solutions to previous problem helps finding creative solutions.md",
                "color": "rgb(144.3167584275321, 132.54510666460192, 142.23051409195392)"
            },
            "geometry": {
                "type": "Point",
                "coordinates": [
                    0.6927976772733505,
                    0.2840618192769728
                ]
            }
        },
        {
            "type": "Feature",
            "properties": {
                "label": "202107071935 The two types of practical books.md",
                "color": "rgb(161.3871473659529, 142.62030959837278, 48.299151240397975)"
            },
            "geometry": {
                "type": "Point",
                "coordinates": [
                    0.41469174659409075,
                    0.8350125207834762
                ]
            }
        },
        {
            "type": "Feature",
            "properties": {
                "label": "202109222330 Is Thus Spake Zarathoustra has any historical fundements?.md",
                "color": "rgb(138.21046253210892, 163.99632189716579, 132.75744240131635)"
            },
            "geometry": {
                "type": "Point",
                "coordinates": [
                    0.3473695458856907,
                    0.06997026729424388
                ]
            }
        },
        {
            "type": "Feature",
            "properties": {
                "label": "202106172137 Writing a lot trigger the large number theory on finding great topics.md",
                "color": "rgb(144.62699515350522, 116.17014721117076, 211.03916667965288)"
            },
            "geometry": {
                "type": "Point",
                "coordinates": [
                    0.678182749508238,
                    0.5300869531166812
                ]
            }
        },
        {
            "type": "Feature",
            "properties": {
                "label": "202106122212 Better taking note by hand.md",
                "color": "rgb(143.0830130085969, 111.4204786242336, 217.52448593628355)"
            },
            "geometry": {
                "type": "Point",
                "coordinates": [
                    0.7945206374470556,
                    0.6106535586092862
                ]
            }
        },
        {
            "type": "Feature",
            "properties": {
                "label": "202107062109 Don't use extrinsic aid synchronously.md",
                "color": "rgb(171.02653889136803, 166.4481326234487, 57.836028986342384)"
            },
            "geometry": {
                "type": "Point",
                "coordinates": [
                    0.4527849930427374,
                    0.8570057381373883
                ]
            }
        },
        {
            "type": "Feature",
            "properties": {
                "label": "202107062046 Book completeness as an indiscutable argument.md",
                "color": "rgb(155.863470345658, 144.8975420143056, 66.8639490590842)"
            },
            "geometry": {
                "type": "Point",
                "coordinates": [
                    0.33090030895524597,
                    0.559717678480562
                ]
            }
        },
        {
            "type": "Feature",
            "properties": {
                "label": "202106270022 Teaching require empathy.md",
                "color": "rgb(169.0967195695658, 140.528315309088, 55.48570776185744)"
            },
            "geometry": {
                "type": "Point",
                "coordinates": [
                    0.513246659382489,
                    0.468012421725279
                ]
            }
        },
        {
            "type": "Feature",
            "properties": {
                "label": "202106290039 Don't stop on unknown references when reading.md",
                "color": "rgb(176.3332883342526, 141.37906044841557, 124.68583921278324)"
            },
            "geometry": {
                "type": "Point",
                "coordinates": [
                    0.5215765281351006,
                    0.7445758936469595
                ]
            }
        },
        {
            "type": "Feature",
            "properties": {
                "label": "202106270039 Best collectors are artists.md",
                "color": "rgb(124.3167543305337, 131.658485161326, 191.9837412733769)"
            },
            "geometry": {
                "type": "Point",
                "coordinates": [
                    0.7001743893677127,
                    0.009453063648406737
                ]
            }
        },
        {
            "type": "Feature",
            "properties": {
                "label": "202107072126 Imaginary litterature is harder to read.md",
                "color": "rgb(156.51320547394232, 168.89811430950323, 57.4767635414448)"
            },
            "geometry": {
                "type": "Point",
                "coordinates": [
                    0.3482317267694341,
                    0.6387263846094746
                ]
            }
        },
        {
            "type": "Feature",
            "properties": {
                "label": "202106122322 Remembering is bringing back memory to conscious mind.md",
                "color": "rgb(155.81920344744566, 124.08355240813614, 178.48971250621736)"
            },
            "geometry": {
                "type": "Point",
                "coordinates": [
                    0.9154357012212371,
                    0.4147684359423605
                ]
            }
        },
        {
            "type": "Feature",
            "properties": {
                "label": "202106122339 Don't worry about slipbox's completeness.md",
                "color": "rgb(137.85810596434794, 127.87771992031539, 233.30123635141305)"
            },
            "geometry": {
                "type": "Point",
                "coordinates": [
                    0.7325498276719741,
                    0.44073037834898154
                ]
            }
        },
        {
            "type": "Feature",
            "properties": {
                "label": "202107032032 Focus is for executing, openess is for creativity.md",
                "color": "rgb(156.2403807098009, 125.14580185763161, 153.99127016741843)"
            },
            "geometry": {
                "type": "Point",
                "coordinates": [
                    0.9741874355490463,
                    0.20384856588855543
                ]
            }
        },
        {
            "type": "Feature",
            "properties": {
                "label": "202106131132 Litterature notes helps comparing different authors ideas.md",
                "color": "rgb(172.19083733749187, 119.27488233769553, 168.57125486172032)"
            },
            "geometry": {
                "type": "Point",
                "coordinates": [
                    0.5587051454689321,
                    0.5576729428172864
                ]
            }
        },
        {
            "type": "Feature",
            "properties": {
                "label": "202106152303 Laxism is a threat to creativity.md",
                "color": "rgb(144.34580470353876, 126.85001596123047, 176.30012261946882)"
            },
            "geometry": {
                "type": "Point",
                "coordinates": [
                    0.7638756943839162,
                    0.24641143336895646
                ]
            }
        },
        {
            "type": "Feature",
            "properties": {
                "label": "202107272301 Our mental growth don't have limit.md",
                "color": "rgb(150.38172159924596, 161.36543379123282, 101.20061019846713)"
            },
            "geometry": {
                "type": "Point",
                "coordinates": [
                    0.5186543532051949,
                    0.3845506327839727
                ]
            }
        },
        {
            "type": "Feature",
            "properties": {
                "label": "~ What are litterature notes?.md",
                "color": "rgb(160.85727509966904, 113.14624658547051, 207.06333737757132)"
            },
            "geometry": {
                "type": "Point",
                "coordinates": [
                    0.5123655586041309,
                    0.39617341243370424
                ]
            }
        },
        {
            "type": "Feature",
            "properties": {
                "label": "202106122307 Reading with a pen in hand is a way to test our understanding.md",
                "color": "rgb(174.0859553778949, 126.35859801954145, 146.11627293784386)"
            },
            "geometry": {
                "type": "Point",
                "coordinates": [
                    0.8401350621022796,
                    0.8098478170921609
                ]
            }
        },
        {
            "type": "Feature",
            "properties": {
                "label": "202106122336 Understanding improve strenght retrieval.md",
                "color": "rgb(180.87008153191823, 112.69061630285397, 149.62322414887177)"
            },
            "geometry": {
                "type": "Point",
                "coordinates": [
                    0.7831645091527075,
                    0.591104487547843
                ]
            }
        },
        {
            "type": "Feature",
            "properties": {
                "label": "202106270036 Don't search for good taste, search for pleasant things.md",
                "color": "rgb(154.36243167617423, 145.30957279518123, 118.40632359271328)"
            },
            "geometry": {
                "type": "Point",
                "coordinates": [
                    0.5490574414275182,
                    -0.1229501675077859
                ]
            }
        },
        {
            "type": "Feature",
            "properties": {
                "label": "202106122329 Multiplying notes connections free us from unexpected cues.md",
                "color": "rgb(148.77221568018817, 115.66454224705387, 208.2916315719392)"
            },
            "geometry": {
                "type": "Point",
                "coordinates": [
                    0.6931578398592204,
                    0.33824458143812675
                ]
            }
        },
        {
            "type": "Feature",
            "properties": {
                "label": "202106270049 Collectors should have an antilibrary.md",
                "color": "rgb(127.99899159425462, 166.2420820475127, 132.0702438099496)"
            },
            "geometry": {
                "type": "Point",
                "coordinates": [
                    0.32801122267262733,
                    0.16796662772592208
                ]
            }
        },
        {
            "type": "Feature",
            "properties": {
                "label": "202106201723 Learning shouldn't be linear but graph oriented.md",
                "color": "rgb(120.93457090728911, 104.83432447506175, 183.83584482325398)"
            },
            "geometry": {
                "type": "Point",
                "coordinates": [
                    0.8156365478512867,
                    0.27831491277648635
                ]
            }
        },
        {
            "type": "Feature",
            "properties": {
                "label": "202107072122 Be careful about practical book's propaganda.md",
                "color": "rgb(170.86105201023196, 149.76182809231418, 41.7070070615229)"
            },
            "geometry": {
                "type": "Point",
                "coordinates": [
                    0.45597083200794297,
                    0.6042580601633403
                ]
            }
        },
        {
            "type": "Feature",
            "properties": {
                "label": "202107071931 Analytical reading apply on non-fiction.md",
                "color": "rgb(169.37058948299807, 170.90402253185977, 57.401352407409235)"
            },
            "geometry": {
                "type": "Point",
                "coordinates": [
                    0.353992249276716,
                    0.8310489350169278
                ]
            }
        },
        {
            "type": "Feature",
            "properties": {
                "label": "202106131120 Index notes like a writter.md",
                "color": "rgb(143.83038907369476, 117.60236491609129, 208.14839091693727)"
            },
            "geometry": {
                "type": "Point",
                "coordinates": [
                    0.7854890163253021,
                    0.43074016535346704
                ]
            }
        },
        {
            "type": "Feature",
            "properties": {
                "label": "202106131155 Paradigm shifts comes from little steps toward a direction.md",
                "color": "rgb(155.59352841110967, 99.86113129932218, 150.80132496867364)"
            },
            "geometry": {
                "type": "Point",
                "coordinates": [
                    0.7691181014886582,
                    0.13278782140992032
                ]
            }
        },
        {
            "type": "Feature",
            "properties": {
                "label": "202106152243 Creativity and thinking better flourish under restrictions.md",
                "color": "rgb(142.95722645248034, 122.96438810183233, 164.42719328368844)"
            },
            "geometry": {
                "type": "Point",
                "coordinates": [
                    0.7585372540672966,
                    0.2055567179060083
                ]
            }
        },
        {
            "type": "Feature",
            "properties": {
                "label": "202106122248 Storing notes in our slipbox is investing in ourself.md",
                "color": "rgb(136.4818491320677, 99.67148947786298, 241.0460010862714)"
            },
            "geometry": {
                "type": "Point",
                "coordinates": [
                    0.8421441700474748,
                    0.49898431360993145
                ]
            }
        },
        {
            "type": "Feature",
            "properties": {
                "label": "202106122343 The slipbox is a tool to think in, not about.md",
                "color": "rgb(135.87915244035358, 125.93262732462063, 211.73235991939686)"
            },
            "geometry": {
                "type": "Point",
                "coordinates": [
                    0.7095035971618459,
                    0.34273996835688814
                ]
            }
        },
        {
            "type": "Feature",
            "properties": {
                "label": "202106152240 Solutions are just trade offs and can't be perfect.md",
                "color": "rgb(137.17393129633126, 108.58790674892971, 165.36005714153032)"
            },
            "geometry": {
                "type": "Point",
                "coordinates": [
                    0.7770911226835431,
                    0.3413606742776956
                ]
            }
        },
        {
            "type": "Feature",
            "properties": {
                "label": "202106270032 Aided and unaided learning.md",
                "color": "rgb(161.0076782742352, 131.46256141417203, 80.02679779193022)"
            },
            "geometry": {
                "type": "Point",
                "coordinates": [
                    0.6217570030193038,
                    0.35541254492846663
                ]
            }
        },
        {
            "type": "Feature",
            "properties": {
                "label": "202107032150 Questioning a book to read more actively.md",
                "color": "rgb(173.63367977298373, 159.47888752727047, 51.71489337835399)"
            },
            "geometry": {
                "type": "Point",
                "coordinates": [
                    0.3917401646659678,
                    0.5845455790554585
                ]
            }
        },
        {
            "type": "Feature",
            "properties": {
                "label": "202107061349 Criticizing a book is a reader obligation toward the author.md",
                "color": "rgb(179.358166403398, 154.86363756482476, 36.08908508048931)"
            },
            "geometry": {
                "type": "Point",
                "coordinates": [
                    0.455972915434445,
                    0.7676086857169054
                ]
            }
        },
        {
            "type": "Feature",
            "properties": {
                "label": "202107052315 Grasp author's key sentences and arguments in a book.md",
                "color": "rgb(186.25027034277736, 135.09090356329475, 84.99031637472802)"
            },
            "geometry": {
                "type": "Point",
                "coordinates": [
                    0.49164107112317795,
                    0.43716069356215076
                ]
            }
        },
        {
            "type": "Feature",
            "properties": {
                "label": "202106122315 Reading without writing isn't learning.md",
                "color": "rgb(177.9472974442166, 113.21205132700709, 151.94876989960628)"
            },
            "geometry": {
                "type": "Point",
                "coordinates": [
                    0.8926089860542731,
                    0.7212441824089957
                ]
            }
        },
        {
            "type": "Feature",
            "properties": {
                "label": "202106270021 The three kinds of reading.md",
                "color": "rgb(179.37493385975955, 158.24885990320936, 35.376259267802226)"
            },
            "geometry": {
                "type": "Point",
                "coordinates": [
                    0.613382994046338,
                    0.7688410476255687
                ]
            }
        },
        {
            "type": "Feature",
            "properties": {
                "label": "202106131114 Note connections helps find patterns accross non related subjects.md",
                "color": "rgb(143.4665909670695, 123.65104347851319, 197.1803061570566)"
            },
            "geometry": {
                "type": "Point",
                "coordinates": [
                    0.6886091416833204,
                    0.33864088874381276
                ]
            }
        },
        {
            "type": "Feature",
            "properties": {
                "label": "202107052256 Find the important keywords in a book help analysis.md",
                "color": "rgb(197.29529664627876, 139.98584801338492, 60.11200475150193)"
            },
            "geometry": {
                "type": "Point",
                "coordinates": [
                    0.583093662013938,
                    0.5232115858102668
                ]
            }
        },
        {
            "type": "Feature",
            "properties": {
                "label": "202106152224 Finding creative and functional solutions require abstraction.md",
                "color": "rgb(152.98113705302723, 101.16759036282559, 191.5673971164167)"
            },
            "geometry": {
                "type": "Point",
                "coordinates": [
                    0.8038326582228533,
                    0.472575716062594
                ]
            }
        },
        {
            "type": "Feature",
            "properties": {
                "label": "202107062058 Read with exigence.md",
                "color": "rgb(168.02282168395683, 146.7695655357663, 66.80611362523933)"
            },
            "geometry": {
                "type": "Point",
                "coordinates": [
                    0.5824593565102807,
                    0.8291286940851192
                ]
            }
        },
        {
            "type": "Feature",
            "properties": {
                "label": "202106152315 Zettelkasten make the act of choosing topic seamless.md",
                "color": "rgb(126.03040962824822, 94.7859518339703, 234.89380048440586)"
            },
            "geometry": {
                "type": "Point",
                "coordinates": [
                    0.8173075465772521,
                    0.29676617385473825
                ]
            }
        },
        {
            "type": "Feature",
            "properties": {
                "label": "202106122321 Forgetting is active inhibition.md",
                "color": "rgb(151.65752122782277, 141.72048937177937, 179.3331108103266)"
            },
            "geometry": {
                "type": "Point",
                "coordinates": [
                    0.7996725683088471,
                    0.295315516394054
                ]
            }
        },
        {
            "type": "Feature",
            "properties": {
                "label": "202106122246 Smart notes are about thinking beyound actual context.md",
                "color": "rgb(146.3565515410411, 109.53592652286656, 235.24630832487998)"
            },
            "geometry": {
                "type": "Point",
                "coordinates": [
                    0.739840552195275,
                    0.6747348435843566
                ]
            }
        },
        {
            "type": "Feature",
            "properties": {
                "label": "202106172158 Finding unheard ideas require open-mindness.md",
                "color": "rgb(139.95865545380113, 106.91980184699618, 222.23489542359562)"
            },
            "geometry": {
                "type": "Point",
                "coordinates": [
                    0.7959539427993794,
                    0.48899340666259394
                ]
            }
        },
        {
            "type": "Feature",
            "properties": {
                "label": "202106152227 Knowing failures helps as much as knowing successes.md",
                "color": "rgb(145.22699996075596, 116.12822007711856, 186.44401745241743)"
            },
            "geometry": {
                "type": "Point",
                "coordinates": [
                    0.8660227150894605,
                    0.47955048384764726
                ]
            }
        },
        {
            "type": "Feature",
            "properties": {
                "label": "202107272232 Zettelkasten and digital gardening is syntopical writing.md",
                "color": "rgb(144.48749167217073, 118.79401085419677, 181.69202256143137)"
            },
            "geometry": {
                "type": "Point",
                "coordinates": [
                    0.6384174029605041,
                    0.4899837085908223
                ]
            }
        },
        {
            "type": "Feature",
            "properties": {
                "label": "202106242157 There's various level of active reading.md",
                "color": "rgb(168.7980110333878, 159.8933529358587, 50.57398369773742)"
            },
            "geometry": {
                "type": "Point",
                "coordinates": [
                    0.6715145793056662,
                    0.7463748595771729
                ]
            }
        },
        {
            "type": "Feature",
            "properties": {
                "label": "202106122221 The slipbox should be agnostic.md",
                "color": "rgb(142.96771581979266, 116.66805102644226, 220.31075755319455)"
            },
            "geometry": {
                "type": "Point",
                "coordinates": [
                    0.7401370183983126,
                    0.4655017970757663
                ]
            }
        },
        {
            "type": "Feature",
            "properties": {
                "label": "202106122244 Reformulating ideas enlarge our set of thinking tools.md",
                "color": "rgb(171.05363486159803, 105.51624593602315, 195.09038426317633)"
            },
            "geometry": {
                "type": "Point",
                "coordinates": [
                    0.9523169789576863,
                    0.6836356854862395
                ]
            }
        },
        {
            "type": "Feature",
            "properties": {
                "label": "202107272303 Geniuses characteristics.md",
                "color": "rgb(167.68667451720424, 130.06384905373577, 77.88508849790955)"
            },
            "geometry": {
                "type": "Point",
                "coordinates": [
                    0.507617133640246,
                    0.6898495084032221
                ]
            }
        },
        {
            "type": "Feature",
            "properties": {
                "label": "Transistors.md",
                "color": "rgb(99.64981033791845, 128.03888808268462, 70.77173626976068)"
            },
            "geometry": {
                "type": "Point",
                "coordinates": [
                    0.7834218854372229,
                    -0.25742847443519046
                ]
            }
        },
        {
            "type": "Feature",
            "properties": {
                "label": "Electronics.md",
                "color": "rgb(66.43799286201886, 132.2020623620366, 126.31655468439969)"
            },
            "geometry": {
                "type": "Point",
                "coordinates": [
                    0.7262080526004282,
                    -0.28827363029518505
                ]
            }
        },
        {
            "type": "Feature",
            "properties": {
                "label": "Logic gates.md",
                "color": "rgb(94.3206083038958, 123.40947931191148, 60.19747329493991)"
            },
            "geometry": {
                "type": "Point",
                "coordinates": [
                    0.804423934163774,
                    -0.21596996973880447
                ]
            }
        },
        {
            "type": "Feature",
            "properties": {
                "label": "Wiring audio cables.md",
                "color": "rgb(88.86804672071719, 153.21433401593728, 148.21287791141035)"
            },
            "geometry": {
                "type": "Point",
                "coordinates": [
                    0.4006996373852348,
                    -0.3675337184956368
                ]
            }
        },
        {
            "type": "Feature",
            "properties": {
                "label": "Nixie tubes.md",
                "color": "rgb(78.53515733988175, 147.14582502986448, 101.53705937105948)"
            },
            "geometry": {
                "type": "Point",
                "coordinates": [
                    0.5268631617096208,
                    -0.3935362845268357
                ]
            }
        },
        {
            "type": "Feature",
            "properties": {
                "label": "Universaly complete set.md",
                "color": "rgb(109.82063775062467, 127.84566423803324, 74.55911089162196)"
            },
            "geometry": {
                "type": "Point",
                "coordinates": [
                    0.6839295081269141,
                    -0.1875107447639778
                ]
            }
        },
        {
            "type": "Feature",
            "properties": {
                "label": "Removable soundproofed studios.md",
                "color": "rgb(104.57653138487245, 141.0083085527052, 166.08732293686128)"
            },
            "geometry": {
                "type": "Point",
                "coordinates": [
                    0.815549450527307,
                    -0.3247081204123727
                ]
            }
        },
        {
            "type": "Feature",
            "properties": {
                "label": "Arranging studios in a building.md",
                "color": "rgb(102.07732439189296, 150.8435696655686, 157.4010377446852)"
            },
            "geometry": {
                "type": "Point",
                "coordinates": [
                    0.8213916834145756,
                    -0.22416467577002017
                ]
            }
        },
        {
            "type": "Feature",
            "properties": {
                "label": "Preamp.md",
                "color": "rgb(78.8905204044537, 145.93453928150905, 102.19712591180397)"
            },
            "geometry": {
                "type": "Point",
                "coordinates": [
                    0.16660139086516262,
                    -0.5626423991457065
                ]
            }
        },
        {
            "type": "Feature",
            "properties": {
                "label": "Compressor.md",
                "color": "rgb(100.19696865616721, 158.99539389823562, 107.49732367672522)"
            },
            "geometry": {
                "type": "Point",
                "coordinates": [
                    0.6621498278993376,
                    -0.3814511997534593
                ]
            }
        },
        {
            "type": "Feature",
            "properties": {
                "label": "Monitors.md",
                "color": "rgb(100.82489028984261, 153.8924928589887, 113.11631200627383)"
            },
            "geometry": {
                "type": "Point",
                "coordinates": [
                    0.7447185182191228,
                    -0.22031529561736812
                ]
            }
        },
        {
            "type": "Feature",
            "properties": {
                "label": "Distortion.md",
                "color": "rgb(96.64394956892008, 148.47446320302856, 116.89249515216754)"
            },
            "geometry": {
                "type": "Point",
                "coordinates": [
                    0.6208614954219164,
                    -0.4069116217446409
                ]
            }
        },
        {
            "type": "Feature",
            "properties": {
                "label": "Microphones.md",
                "color": "rgb(90.55002617540958, 152.51582269596665, 136.1817800548319)"
            },
            "geometry": {
                "type": "Point",
                "coordinates": [
                    0.592064241407068,
                    -0.37392585498611897
                ]
            }
        },
        {
            "type": "Feature",
            "properties": {
                "label": "Audio interface.md",
                "color": "rgb(65.94460367805677, 136.1744954370512, 104.5114171600907)"
            },
            "geometry": {
                "type": "Point",
                "coordinates": [
                    0.6643816803011209,
                    -0.3682945906241821
                ]
            }
        },
        {
            "type": "Feature",
            "properties": {
                "label": "Top of the line studio gear configurations.md",
                "color": "rgb(96.01397883937614, 150.4646285383714, 137.7220840097707)"
            },
            "geometry": {
                "type": "Point",
                "coordinates": [
                    0.7403785069115038,
                    -0.3713359080690653
                ]
            }
        },
        {
            "type": "Feature",
            "properties": {
                "label": "Books and Binders.md",
                "color": "rgb(73.18672973593087, 114.3656227285488, 154.41353258533502)"
            },
            "geometry": {
                "type": "Point",
                "coordinates": [
                    0.11360276373664856,
                    0.14688439309467355
                ]
            }
        },
        {
            "type": "Feature",
            "properties": {
                "label": "A brief computer history.md",
                "color": "rgb(90.6062785771036, 104.41804577319444, 87.6199465045654)"
            },
            "geometry": {
                "type": "Point",
                "coordinates": [
                    0.5810940280594151,
                    -0.13705022184988552
                ]
            }
        },
        {
            "type": "Feature",
            "properties": {
                "label": "SOLID.md",
                "color": "rgb(113.34662351501638, 114.31471387810271, 94.08516414411025)"
            },
            "geometry": {
                "type": "Point",
                "coordinates": [
                    0.6540494477992567,
                    -0.15495128461581129
                ]
            }
        },
        {
            "type": "Feature",
            "properties": {
                "label": "Turing completeness.md",
                "color": "rgb(114.66049914041211, 105.80709754673083, 62.32120691879091)"
            },
            "geometry": {
                "type": "Point",
                "coordinates": [
                    0.7563523679989287,
                    -0.13222312006513026
                ]
            }
        },
        {
            "type": "Feature",
            "properties": {
                "label": "Oriented Object Programming.md",
                "color": "rgb(105.01593589461666, 122.4017122009547, 65.35366969840106)"
            },
            "geometry": {
                "type": "Point",
                "coordinates": [
                    0.49627035459620317,
                    -0.18309789924062306
                ]
            }
        },
        {
            "type": "Feature",
            "properties": {
                "label": "Memex.md",
                "color": "rgb(122.0543162984707, 132.75678458993013, 133.24908569965368)"
            },
            "geometry": {
                "type": "Point",
                "coordinates": [
                    0.4968004891917996,
                    0.060890089878053624
                ]
            }
        },
        {
            "type": "Feature",
            "properties": {
                "label": "202106122320 Differences between Slipbox and Second-brain?.md",
                "color": "rgb(131.93055802401815, 130.14483131713956, 188.91341303905207)"
            },
            "geometry": {
                "type": "Point",
                "coordinates": [
                    0.6959527244497221,
                    0.07246116876963214
                ]
            }
        },
        {
            "type": "Feature",
            "properties": {
                "label": "202109222326 Thoughts fragment.md",
                "color": "rgb(158.15407662964117, 147.98343163998263, 115.98063029771424)"
            },
            "geometry": {
                "type": "Point",
                "coordinates": [
                    0.3731699410116062,
                    0.45842628937533886
                ]
            }
        },
        {
            "type": "Feature",
            "properties": {
                "label": "202106152307 Restrict time on tasks to focus on the real value.md",
                "color": "rgb(158.68001934485488, 105.9185824568601, 148.62001620366465)"
            },
            "geometry": {
                "type": "Point",
                "coordinates": [
                    0.6829168719519448,
                    -0.06658263164206576
                ]
            }
        },
        {
            "type": "Feature",
            "properties": {
                "label": "202107061403 Memex, second brain, PKM, digital garden, what's the differences?.md",
                "color": "rgb(128.21255124207437, 144.82000893722986, 145.84189886711485)"
            },
            "geometry": {
                "type": "Point",
                "coordinates": [
                    0.5606307526025178,
                    -0.10824426266765327
                ]
            }
        },
        {
            "type": "Feature",
            "properties": {
                "label": "202106131148 Practice jazz improvisation by following learning phase principle.md",
                "color": "rgb(155.43757624211725, 114.95743075903682, 159.5537345042382)"
            },
            "geometry": {
                "type": "Point",
                "coordinates": [
                    0.7587024222460861,
                    0.042885550346697686
                ]
            }
        },
        {
            "type": "Feature",
            "properties": {
                "label": "202106152301 Binary code has the best restriction-output ratio.md",
                "color": "rgb(116.27226759784284, 133.3611263410196, 122.70974295729894)"
            },
            "geometry": {
                "type": "Point",
                "coordinates": [
                    0.7320641941440801,
                    0.013941381004009674
                ]
            }
        },
        {
            "type": "Feature",
            "properties": {
                "label": "202106152252 Imposing restrictions to fight the blank page syndrome.md",
                "color": "rgb(135.05312147724018, 133.0382147864875, 182.23313058689286)"
            },
            "geometry": {
                "type": "Point",
                "coordinates": [
                    0.7209892295607452,
                    0.10402811124179416
                ]
            }
        },
        {
            "type": "Feature",
            "properties": {
                "label": "~ What are fleeting notes?.md",
                "color": "rgb(149.71347483939394, 105.31771519488899, 228.12516647104508)"
            },
            "geometry": {
                "type": "Point",
                "coordinates": [
                    0.5769884787815159,
                    0.35312043260908943
                ]
            }
        },
        {
            "type": "Feature",
            "properties": {
                "label": "202106172218 Slipbox can make working on multiple manuscrits at the same time seamless.md",
                "color": "rgb(140.32841106497554, 123.6076353590889, 207.19671741363652)"
            },
            "geometry": {
                "type": "Point",
                "coordinates": [
                    0.7489575153420925,
                    0.138536855438873
                ]
            }
        },
        {
            "type": "Feature",
            "properties": {
                "label": "202109181532 Domestic Cozy.md",
                "color": "rgb(110.59140452075172, 142.68527791454255, 110.05499928858639)"
            },
            "geometry": {
                "type": "Point",
                "coordinates": [
                    0.6571956087825159,
                    -0.28755139781266376
                ]
            }
        },
        {
            "type": "Feature",
            "properties": {
                "label": "202106172211 Focus isn't what we do but what we don't do.md",
                "color": "rgb(152.0062674029628, 124.91703702516664, 129.22825600918978)"
            },
            "geometry": {
                "type": "Point",
                "coordinates": [
                    0.9453196986360006,
                    0.07526369003433296
                ]
            }
        },
        {
            "type": "Feature",
            "properties": {
                "label": "202107122234 Quadrivium and Trivium.md",
                "color": "rgb(159.179250812561, 130.06096401875882, 81.50079589604454)"
            },
            "geometry": {
                "type": "Point",
                "coordinates": [
                    0.21304646970297156,
                    -0.14368296924103632
                ]
            }
        },
        {
            "type": "Feature",
            "properties": {
                "label": "202106290027 Make analytical TL;DR of chapters in books.md",
                "color": "rgb(155.5965579323639, 134.37305700328136, 184.31877925164866)"
            },
            "geometry": {
                "type": "Point",
                "coordinates": [
                    0.5364179016736558,
                    0.7596385517032451
                ]
            }
        },
        {
            "type": "Feature",
            "properties": {
                "label": "202106122301 Viewing notes toward the Golden Circle framework helps stating on the relevance of ideas.md",
                "color": "rgb(141.82624852049344, 147.4188309043703, 144.59317208359283)"
            },
            "geometry": {
                "type": "Point",
                "coordinates": [
                    0.7940807883980295,
                    0.22290071701353312
                ]
            }
        },
        {
            "type": "Feature",
            "properties": {
                "label": "202106122255 Empty notes are better than no notes at all.md",
                "color": "rgb(143.62641015613488, 128.9538661588389, 193.163678668006)"
            },
            "geometry": {
                "type": "Point",
                "coordinates": [
                    0.6128940822815753,
                    0.21713824479016722
                ]
            }
        },
        {
            "type": "Feature",
            "properties": {
                "label": "Axioms.md",
                "color": "rgb(171.38803294592574, 107.75289623226433, 84.27475162248808)"
            },
            "geometry": {
                "type": "Point",
                "coordinates": [
                    0.471805422960422,
                    0.09493155115790183
                ]
            }
        },
        {
            "type": "Feature",
            "properties": {
                "label": "Normal distribution.md",
                "color": "rgb(131.62610222678114, 112.44660950030347, 89.64054397666658)"
            },
            "geometry": {
                "type": "Point",
                "coordinates": [
                    0.6311450796215237,
                    -0.18312855315782592
                ]
            }
        },
        {
            "type": "Feature",
            "properties": {
                "label": "Mixing fundings strategy.md",
                "color": "rgb(119.84308088263661, 109.81854001316816, 139.28172172780555)"
            },
            "geometry": {
                "type": "Point",
                "coordinates": [
                    0.4221702891578343,
                    -0.45863156564327484
                ]
            }
        },
        {
            "type": "Feature",
            "properties": {
                "label": "Seed round.md",
                "color": "rgb(98.1266138114466, 93.20876346105378, 142.79078219802437)"
            },
            "geometry": {
                "type": "Point",
                "coordinates": [
                    0.5835273931710772,
                    -0.4180888235576297
                ]
            }
        },
        {
            "type": "Feature",
            "properties": {
                "label": "Pitch deck.md",
                "color": "rgb(98.97839955893589, 121.82427191745569, 151.00149013323949)"
            },
            "geometry": {
                "type": "Point",
                "coordinates": [
                    0.7561786660083613,
                    -0.3314673804529426
                ]
            }
        },
        {
            "type": "Feature",
            "properties": {
                "label": "Fundraising.md",
                "color": "rgb(128.55971771572476, 118.52331873752759, 139.0605428605101)"
            },
            "geometry": {
                "type": "Point",
                "coordinates": [
                    0.8893818464012512,
                    -0.156218245318156
                ]
            }
        },
        {
            "type": "Feature",
            "properties": {
                "label": "VC lists.md",
                "color": "rgb(96.83255803999313, 114.18212819306582, 138.24917620861558)"
            },
            "geometry": {
                "type": "Point",
                "coordinates": [
                    0.6567875815597936,
                    -0.34322034918657834
                ]
            }
        },
        {
            "type": "Feature",
            "properties": {
                "label": "Pitching a VC - SaaS case.md",
                "color": "rgb(105.36137632461087, 98.02087038855024, 167.70957878241074)"
            },
            "geometry": {
                "type": "Point",
                "coordinates": [
                    0.34085005911426863,
                    -0.5119876779530315
                ]
            }
        },
        {
            "type": "Feature",
            "properties": {
                "label": "Making underwater videos.md",
                "color": "rgb(97.25040072256871, 207.25624039528066, 135.79656392121274)"
            },
            "geometry": {
                "type": "Point",
                "coordinates": [
                    0.8325377489597673,
                    -0.3655671208975861
                ]
            }
        },
        {
            "type": "Feature",
            "properties": {
                "label": "Gas blending.md",
                "color": "rgb(110.09175055947608, 253.63367745777617, 100.34236738079734)"
            },
            "geometry": {
                "type": "Point",
                "coordinates": [
                    0.7834697275712532,
                    -0.3577329918863232
                ]
            }
        },
        {
            "type": "Feature",
            "properties": {
                "label": "Hyperoxic trimix.md",
                "color": "rgb(105.55436646092275, 246.22354164984625, 78.34821556029442)"
            },
            "geometry": {
                "type": "Point",
                "coordinates": [
                    0.5622479110104402,
                    -0.5956627107907384
                ]
            }
        },
        {
            "type": "Feature",
            "properties": {
                "label": "Normoxic trimix.md",
                "color": "rgb(111.22868638412132, 245.461116562177, 86.54497900467368)"
            },
            "geometry": {
                "type": "Point",
                "coordinates": [
                    0.5577776091649739,
                    -0.5096720707468153
                ]
            }
        },
        {
            "type": "Feature",
            "properties": {
                "label": "Partial pressure.md",
                "color": "rgb(126.25218308662461, 220.85097824618867, 93.43091422961392)"
            },
            "geometry": {
                "type": "Point",
                "coordinates": [
                    0.5514139612205471,
                    -0.2408461536558178
                ]
            }
        },
        {
            "type": "Feature",
            "properties": {
                "label": "Nitrox.md",
                "color": "rgb(107.35676705298499, 247.7895939471439, 82.26576800954555)"
            },
            "geometry": {
                "type": "Point",
                "coordinates": [
                    0.6723748627067928,
                    -0.4341504468177336
                ]
            }
        },
        {
            "type": "Feature",
            "properties": {
                "label": "Hypoxic trimix.md",
                "color": "rgb(113.86017014200293, 245.95383340651722, 92.33863496313899)"
            },
            "geometry": {
                "type": "Point",
                "coordinates": [
                    0.6102873685337421,
                    -0.5582038060661418
                ]
            }
        },
        {
            "type": "Feature",
            "properties": {
                "label": "Trimix.md",
                "color": "rgb(102.77234066342959, 234.6857227661813, 76.05686019462482)"
            },
            "geometry": {
                "type": "Point",
                "coordinates": [
                    0.695759280701832,
                    -0.5634579461767173
                ]
            }
        },
        {
            "type": "Feature",
            "properties": {
                "label": "Hyperoxia.md",
                "color": "rgb(140.4509219138713, 243.5734629985556, 79.85701623012181)"
            },
            "geometry": {
                "type": "Point",
                "coordinates": [
                    0.5424993493528417,
                    -0.40004866137504214
                ]
            }
        },
        {
            "type": "Feature",
            "properties": {
                "label": "Nitrogen narcosis.md",
                "color": "rgb(138.2518491513598, 243.52471297052057, 114.55727546357008)"
            },
            "geometry": {
                "type": "Point",
                "coordinates": [
                    0.7587577957644194,
                    -0.37337473305489904
                ]
            }
        },
        {
            "type": "Feature",
            "properties": {
                "label": "Decompression sickness.md",
                "color": "rgb(115.80134213392625, 256.0, 87.1278550683839)"
            },
            "geometry": {
                "type": "Point",
                "coordinates": [
                    0.7294593378891823,
                    -0.4576462375572526
                ]
            }
        },
        {
            "type": "Feature",
            "properties": {
                "label": "Scuba diving.md",
                "color": "rgb(120.96434857892241, 231.9384477252118, 94.10359232000934)"
            },
            "geometry": {
                "type": "Point",
                "coordinates": [
                    0.6714789750210505,
                    -0.3535468948859067
                ]
            }
        },
        {
            "type": "Feature",
            "properties": {
                "label": "Redbone - Childish Gambino.md",
                "color": "rgb(104.81642300897686, 135.57701846493958, 168.01553444169122)"
            },
            "geometry": {
                "type": "Point",
                "coordinates": [
                    0.24082610977176536,
                    -0.3484930903363911
                ]
            }
        },
        {
            "type": "Feature",
            "properties": {
                "label": "Rapture - Koffee.md",
                "color": "rgb(100.11896828177521, 134.29291694523593, 153.92182731620184)"
            },
            "geometry": {
                "type": "Point",
                "coordinates": [
                    0.36847392342237006,
                    -0.4496916459774409
                ]
            }
        },
        {
            "type": "Feature",
            "properties": {
                "label": "Giant Steps - John Coltrane.md",
                "color": "rgb(86.18109237850493, 117.56062343612982, 171.53367965356097)"
            },
            "geometry": {
                "type": "Point",
                "coordinates": [
                    0.1929899682974903,
                    -0.22109242733769074
                ]
            }
        },
        {
            "type": "Feature",
            "properties": {
                "label": "Armando's Rhumba - Chick Corea.md",
                "color": "rgb(102.80694091504587, 139.7176892799165, 156.50764675670186)"
            },
            "geometry": {
                "type": "Point",
                "coordinates": [
                    0.08261031654649376,
                    -0.3629818981569138
                ]
            }
        },
        {
            "type": "Feature",
            "properties": {
                "label": "~ Full list of the song I learned - Map of content.md",
                "color": "rgb(100.19631670964205, 149.69353820436842, 175.50305670094966)"
            },
            "geometry": {
                "type": "Point",
                "coordinates": [
                    0.4185306297101547,
                    -0.2320382812095041
                ]
            }
        },
        {
            "type": "Feature",
            "properties": {
                "label": "Nemesis - Aaron Parks.md",
                "color": "rgb(86.65586562049607, 131.41406036511583, 169.900350212151)"
            },
            "geometry": {
                "type": "Point",
                "coordinates": [
                    0.23052322106325965,
                    -0.23690309511871624
                ]
            }
        },
        {
            "type": "Feature",
            "properties": {
                "label": "All the things you are - Jerome Kern.md",
                "color": "rgb(93.87382928492127, 117.44105975265673, 146.054166484333)"
            },
            "geometry": {
                "type": "Point",
                "coordinates": [
                    0.29152761318682147,
                    -0.22078920776052885
                ]
            }
        },
        {
            "type": "Feature",
            "properties": {
                "label": "Running Away - Bob Marley and the Wailers.md",
                "color": "rgb(104.47595503857025, 157.20392088454483, 158.29948026209186)"
            },
            "geometry": {
                "type": "Point",
                "coordinates": [
                    0.39198095440588593,
                    -0.35856079058807466
                ]
            }
        },
        {
            "type": "Feature",
            "properties": {
                "label": "Crazy Baldhead - Bob Marley and the Wailers.md",
                "color": "rgb(108.61950935914282, 152.79275993764816, 160.63775483537302)"
            },
            "geometry": {
                "type": "Point",
                "coordinates": [
                    0.30873033223263596,
                    -0.39050325764186666
                ]
            }
        },
        {
            "type": "Feature",
            "properties": {
                "label": "Voyage Autour Du Monde (Tome I) - Dumont D'urville.md",
                "color": "rgb(144.4933246462946, 189.15105167045297, 141.46007404393106)"
            },
            "geometry": {
                "type": "Point",
                "coordinates": [
                    -0.4896731940972732,
                    -0.17531022517598516
                ]
            }
        },
        {
            "type": "Feature",
            "properties": {
                "label": "Plong\u00e9es Autour Du Monde - Jean Bernard Carillet, Olivier Oudon.md",
                "color": "rgb(121.97088126452131, 193.0574263009322, 128.9088982582922)"
            },
            "geometry": {
                "type": "Point",
                "coordinates": [
                    -0.3062027367623455,
                    -0.27118167211303745
                ]
            }
        },
        {
            "type": "Feature",
            "properties": {
                "label": "Encyclop\u00e9die Progressive Ou, Abr\u00e9g\u00e9 Des Sciences, Des Arts Et Des Connaissances Utiles (Tome II) - Mlle M. Forgame.md",
                "color": "rgb(156.0227982735455, 124.34368077168135, 151.9845664881992)"
            },
            "geometry": {
                "type": "Point",
                "coordinates": [
                    -0.45379184103304043,
                    0.02657912364515534
                ]
            }
        },
        {
            "type": "Feature",
            "properties": {
                "label": "Les Voyages D'Ulysse - Mythologie.md",
                "color": "rgb(127.92956806140894, 156.29572542750057, 130.16017756563522)"
            },
            "geometry": {
                "type": "Point",
                "coordinates": [
                    -0.7783660373096428,
                    0.008909464427485391
                ]
            }
        },
        {
            "type": "Feature",
            "properties": {
                "label": "Rap Ta France - Jos\u00e9 Louis Bocquet, Philippe Pierre Adolphe.md",
                "color": "rgb(122.74405030027705, 117.68750382223801, 148.69475983050665)"
            },
            "geometry": {
                "type": "Point",
                "coordinates": [
                    -0.7467187991446924,
                    -0.10749303230388915
                ]
            }
        },
        {
            "type": "Feature",
            "properties": {
                "label": "Dilemmes De Prisonniers Et Strat\u00e9gies Dominantes : La Th\u00e9orie Des Jeux #7 - Fernando Corbal\u00e1n.md",
                "color": "rgb(151.29996462173645, 112.35851205539676, 125.59243727976728)"
            },
            "geometry": {
                "type": "Point",
                "coordinates": [
                    -0.4001059295762299,
                    -0.02409917353606128
                ]
            }
        },
        {
            "type": "Feature",
            "properties": {
                "label": "Vie Priv\u00e9e De Louis Xv   Tome Premier - Unknown.md",
                "color": "rgb(146.7240331795941, 132.9292215592834, 135.14827799262932)"
            },
            "geometry": {
                "type": "Point",
                "coordinates": [
                    -0.7740252867665497,
                    -0.006765175202181758
                ]
            }
        },
        {
            "type": "Feature",
            "properties": {
                "label": "Tout Alice - Lewis Carroll.md",
                "color": "rgb(106.3992986535151, 102.51238661996169, 104.99098459647172)"
            },
            "geometry": {
                "type": "Point",
                "coordinates": [
                    -0.7292517028540849,
                    0.17083921198886257
                ]
            }
        },
        {
            "type": "Feature",
            "properties": {
                "label": "The Smart Thinking Book - Kevin Duncan .md",
                "color": "rgb(94.84558423284261, 104.83858323644074, 126.90334180698969)"
            },
            "geometry": {
                "type": "Point",
                "coordinates": [
                    -0.0679446351006492,
                    0.5585407137470775
                ]
            }
        },
        {
            "type": "Feature",
            "properties": {
                "label": "Devenez Un Grand Orateur Ted   Les 9 Secrets Des Prises De Paroles Les Plus Brillantes - Carmine Gallo.md",
                "color": "rgb(145.6207320159837, 106.32381446647227, 129.47297689578699)"
            },
            "geometry": {
                "type": "Point",
                "coordinates": [
                    -0.3011948790649142,
                    0.07337061537816231
                ]
            }
        },
        {
            "type": "Feature",
            "properties": {
                "label": "Th\u00e9\u00e2tre Complet Tom 2 - William Shakespeare.md",
                "color": "rgb(132.25962188305292, 119.61814704037424, 107.9882748791066)"
            },
            "geometry": {
                "type": "Point",
                "coordinates": [
                    -0.5997726570708645,
                    0.0409066609921128
                ]
            }
        },
        {
            "type": "Feature",
            "properties": {
                "label": "La Lecture Rapide - Tony Buzan.md",
                "color": "rgb(128.88426638056276, 103.83201545811752, 123.18450044121957)"
            },
            "geometry": {
                "type": "Point",
                "coordinates": [
                    -0.5362797493900071,
                    0.3271675172827803
                ]
            }
        },
        {
            "type": "Feature",
            "properties": {
                "label": "La Vie Secr\u00e8te Des Nombres : Les Bizarreries Des Math\u00e9matiques #27 - Joaqu\u00edn Navarro.md",
                "color": "rgb(114.67434799986567, 109.0311605364127, 139.3619239929213)"
            },
            "geometry": {
                "type": "Point",
                "coordinates": [
                    -0.6488203230795933,
                    0.06025926557082369
                ]
            }
        },
        {
            "type": "Feature",
            "properties": {
                "label": "Construction 4.0 - Karim N\u2019essaie, Christian Grellier, Edward Woods .md",
                "color": "rgb(104.77542508708777, 100.82777281250902, 110.0161484082485)"
            },
            "geometry": {
                "type": "Point",
                "coordinates": [
                    -0.6083471330229134,
                    0.13840443138501754
                ]
            }
        },
        {
            "type": "Feature",
            "properties": {
                "label": "Tout Le Monde N'a Pas Eu La Chance De Rater Ses \u00e9tudes - Olivier Roland.md",
                "color": "rgb(143.79980262205487, 96.85056263538272, 122.01338213778924)"
            },
            "geometry": {
                "type": "Point",
                "coordinates": [
                    -0.38449010682709955,
                    0.13756217305314516
                ]
            }
        },
        {
            "type": "Feature",
            "properties": {
                "label": "Sur Le R\u00eave - Sigmund Freud.md",
                "color": "rgb(137.271343297828, 128.4380238122418, 135.32479521775022)"
            },
            "geometry": {
                "type": "Point",
                "coordinates": [
                    -0.6223754805795068,
                    0.14688232300173765
                ]
            }
        },
        {
            "type": "Feature",
            "properties": {
                "label": "Le Royaume Des Animaux 21 : Python Rous - Maurice Burton, Robert Burton .md",
                "color": "rgb(137.16636424968925, 230.49438567615954, 164.00955810127078)"
            },
            "geometry": {
                "type": "Point",
                "coordinates": [
                    -0.812187717950956,
                    -0.1784335632211317
                ]
            }
        },
        {
            "type": "Feature",
            "properties": {
                "label": "The 4-hour Workweek - Tim Ferris.md",
                "color": "rgb(141.06657079998558, 102.03578422703202, 115.82349619183793)"
            },
            "geometry": {
                "type": "Point",
                "coordinates": [
                    0.1671594777842207,
                    0.11663251727431032
                ]
            }
        },
        {
            "type": "Feature",
            "properties": {
                "label": "Les Onze Lois De La R\u00e9ussite - Anthony Robbins.md",
                "color": "rgb(129.9217826754647, 122.25029408962394, 128.52460051920963)"
            },
            "geometry": {
                "type": "Point",
                "coordinates": [
                    -0.5393313445339567,
                    0.195071143259981
                ]
            }
        },
        {
            "type": "Feature",
            "properties": {
                "label": "Business   Les Grandes Id\u00e9es Tout Simplement  - Various.md",
                "color": "rgb(120.8328619901832, 90.12731441953326, 130.64101074712178)"
            },
            "geometry": {
                "type": "Point",
                "coordinates": [
                    -0.5056036906694596,
                    0.08879995009950899
                ]
            }
        },
        {
            "type": "Feature",
            "properties": {
                "label": "Le Mythe De La Singularit\u00e9, Faut Il Craindre L\u2019intelligence Artificielle ? - Jean Gabriel Ganascia.md",
                "color": "rgb(113.87600205009714, 95.83996264358521, 96.10487562793703)"
            },
            "geometry": {
                "type": "Point",
                "coordinates": [
                    -0.44673432388591205,
                    0.02651828138717409
                ]
            }
        },
        {
            "type": "Feature",
            "properties": {
                "label": "Voyages Extraordinaires : Les Indes Noires  - Jules Verne .md",
                "color": "rgb(121.0065273148758, 161.64340072268664, 142.1887421661733)"
            },
            "geometry": {
                "type": "Point",
                "coordinates": [
                    -0.7486285264756081,
                    -0.04565505851403828
                ]
            }
        },
        {
            "type": "Feature",
            "properties": {
                "label": "Les Oracles De Nostradamus : Tome 2 - Nostradamus.md",
                "color": "rgb(116.10063265263483, 125.27052936081118, 115.17525488151499)"
            },
            "geometry": {
                "type": "Point",
                "coordinates": [
                    -0.6759788867938,
                    0.14562113692899423
                ]
            }
        },
        {
            "type": "Feature",
            "properties": {
                "label": "Le Papillon Et La Tornade : Th\u00e9orie Du Chaos Et Changement Climatique #28 - Carlos Madrid.md",
                "color": "rgb(125.25480700355243, 119.06972717492067, 147.44457437423947)"
            },
            "geometry": {
                "type": "Point",
                "coordinates": [
                    -0.5629889296178872,
                    -0.01500771270022023
                ]
            }
        },