{
    "type": "FeatureCollection",
    "features": [
        {
            "type": "Feature",
            "properties": {
                "label": "Transformation.",
                "color": "rgb(122.04197831070857, 121.16801483201219, 126.53006796468324)"
            },
            "geometry": {
                "type": "Point",
                "coordinates": [
                    -0.7884902891906875,
                    0.14546930363833793
                ]
            }
        },
        {
            "type": "Feature",
            "properties": {
                "label": "Electronics components",
                "color": "rgb(78.70960755409203, 146.57128098689162, 101.96685105205927)"
            },
            "geometry": {
                "type": "Point",
                "coordinates": [
                    0.3467322875018421,
                    -0.4780907925666585
                ]
            }
        },
        {
            "type": "Feature",
            "properties": {
                "label": "Moli\u00e8re's plays",
                "color": "rgb(134.97682131823046, 143.32721358014186, 123.22428875847427)"
            },
            "geometry": {
                "type": "Point",
                "coordinates": [
                    -0.7508190660619655,
                    0.04846988588954755
                ]
            }
        },
        {
            "type": "Feature",
            "properties": {
                "label": "Philosophy/Puzzles (0.5/0.5)",
                "color": "rgb(130.64417269589097, 100.47712263273344, 118.33596176715277)"
            },
            "geometry": {
                "type": "Point",
                "coordinates": [
                    -0.5485880990765386,
                    0.13342405658554427
                ]
            }
        },
        {
            "type": "Feature",
            "properties": {
                "label": "Machine Learning",
                "color": "rgb(102.6442227207043, 89.57924174519468, 118.39165803480196)"
            },
            "geometry": {
                "type": "Point",
                "coordinates": [
                    -0.40430760925493625,
                    0.0315766360349769
                ]
            }
        },
        {
            "type": "Feature",
            "properties": {
                "label": "Philosophical works",
                "color": "rgb(128.60484045507457, 118.06225628600114, 139.093517665656)"
            },
            "geometry": {
                "type": "Point",
                "coordinates": [
                    0.11742743564964914,
                    0.032497583858571225
                ]
            }
        },
        {
            "type": "Feature",
            "properties": {
                "label": "None",
                "color": "rgb(128.60394914729292, 118.05871969747079, 139.09525759139183)"
            },
            "geometry": {
                "type": "Point",
                "coordinates": [
                    0.11604985483317898,
                    0.03251958444805507
                ]
            }
        },
        {
            "type": "Feature",
            "properties": {
                "label": "Shakespeare's Plays",
                "color": "rgb(128.72823876522367, 119.23074775059784, 104.26600831903758)"
            },
            "geometry": {
                "type": "Point",
                "coordinates": [
                    -0.6076535318744656,
                    0.037439022634607175
                ]
            }
        },
        {
            "type": "Feature",
            "properties": {
                "label": "Animal kingdom",
                "color": "rgb(137.33564536849508, 236.7678414382317, 170.76900783030374)"
            },
            "geometry": {
                "type": "Point",
                "coordinates": [
                    -0.8117019762557547,
                    -0.12955900048712193
                ]
            }
        },
        {
            "type": "Feature",
            "properties": {
                "label": "Finance policies.",
                "color": "rgb(128.16278893181612, 120.3315653638515, 129.90777826230442)"
            },
            "geometry": {
                "type": "Point",
                "coordinates": [
                    -0.24464025278513332,
                    -0.21158779133266847
                ]
            }
        },
        {
            "type": "Feature",
            "properties": {
                "label": "Dystopian Society",
                "color": "rgb(110.65167948840738, 142.5943747355729, 110.64470126914733)"
            },
            "geometry": {
                "type": "Point",
                "coordinates": [
                    -0.027471840747045673,
                    -0.05414433275128619
                ]
            }
        },
        {
            "type": "Feature",
            "properties": {
                "label": "Deception/Deceit.",
                "color": "rgb(127.08103842057653, 109.63752147651903, 122.28226767724553)"
            },
            "geometry": {
                "type": "Point",
                "coordinates": [
                    -0.6589930569491753,
                    0.129191447587839
                ]
            }
        },
        {
            "type": "Feature",
            "properties": {
                "label": "Self-improvement.",
                "color": "rgb(143.60697364692504, 116.50234690716661, 140.04558818051308)"
            },
            "geometry": {
                "type": "Point",
                "coordinates": [
                    0.017445422509064168,
                    0.2396325026563371
                ]
            }
        },
        {
            "type": "Feature",
            "properties": {
                "label": "Measurement systems",
                "color": "rgb(124.58148353126228, 112.36367389336195, 127.14813474430643)"
            },
            "geometry": {
                "type": "Point",
                "coordinates": [
                    -0.7533724280406267,
                    0.05394523010192373
                ]
            }
        },
        {
            "type": "Feature",
            "properties": {
                "label": "Music history.",
                "color": "rgb(99.8071099835488, 122.39139755544416, 150.8722493566226)"
            },
            "geometry": {
                "type": "Point",
                "coordinates": [
                    0.06976875707620911,
                    -0.23342236380885267
                ]
            }
        },
        {
            "type": "Feature",
            "properties": {
                "label": "18th Century France",
                "color": "rgb(136.64908345460458, 131.1318271139798, 130.08292021768375)"
            },
            "geometry": {
                "type": "Point",
                "coordinates": [
                    -0.7635304551984063,
                    0.04835316394580745
                ]
            }
        },
        {
            "type": "Feature",
            "properties": {
                "label": "Parallel Universe",
                "color": "rgb(113.95743379184503, 116.86872293003196, 123.11462389588272)"
            },
            "geometry": {
                "type": "Point",
                "coordinates": [
                    -0.5482598257059317,
                    -0.010664977556042069
                ]
            }
        },
        {
            "type": "Feature",
            "properties": {
                "label": "Complete Theatre.",
                "color": "rgb(132.79604742739352, 118.85742665670196, 108.86440666618154)"
            },
            "geometry": {
                "type": "Point",
                "coordinates": [
                    -0.6747994922280465,
                    0.018344610946196438
                ]
            }
        },
        {
            "type": "Feature",
            "properties": {
                "label": "Achievement-oriented.",
                "color": "rgb(117.47868774322461, 111.49747611613938, 124.6238226271382)"
            },
            "geometry": {
                "type": "Point",
                "coordinates": [
                    -0.7715164359728408,
                    0.07747243303524584
                ]
            }
        },
        {
            "type": "Feature",
            "properties": {
                "label": "Animal kingdom",
                "color": "rgb(141.10174006506207, 233.47157222546966, 170.25823181056745)"
            },
            "geometry": {
                "type": "Point",
                "coordinates": [
                    -0.8229311473164551,
                    -0.16900074123905523
                ]
            }
        },
        {
            "type": "Feature",
            "properties": {
                "label": "Entrepreneurship",
                "color": "rgb(83.25084155379704, 97.10723581056936, 108.74432854054058)"
            },
            "geometry": {
                "type": "Point",
                "coordinates": [
                    0.253463497683742,
                    0.00355640247353127
                ]
            }
        },
        {
            "type": "Feature",
            "properties": {
                "label": "Animal kingdom.",
                "color": "rgb(137.53718938021933, 231.85894951767023, 163.87862752167914)"
            },
            "geometry": {
                "type": "Point",
                "coordinates": [
                    -0.8424661574280885,
                    -0.14670768902620038
                ]
            }
        },
        {
            "type": "Feature",
            "properties": {
                "label": "Educational methods.",
                "color": "rgb(160.10298792314603, 130.77426954790013, 80.84662961863947)"
            },
            "geometry": {
                "type": "Point",
                "coordinates": [
                    0.41740174754937637,
                    0.1058626484026039
                ]
            }
        },
        {
            "type": "Feature",
            "properties": {
                "label": "Books/stories.",
                "color": "rgb(117.15647386657491, 131.63999819919417, 128.59065558691816)"
            },
            "geometry": {
                "type": "Point",
                "coordinates": [
                    -0.8350282377085373,
                    0.06832205049538154
                ]
            }
        },
        {
            "type": "Feature",
            "properties": {
                "label": "Mindfulness. (weight: 0.5)",
                "color": "rgb(114.42161205452578, 108.1087855056096, 138.44100842311417)"
            },
            "geometry": {
                "type": "Point",
                "coordinates": [
                    -0.5466083898248723,
                    0.11701697054074714
                ]
            }
        },
        {
            "type": "Feature",
            "properties": {
                "label": "Entrepreneurship visionary",
                "color": "rgb(86.40391661809949, 98.77389798238084, 114.72317028769433)"
            },
            "geometry": {
                "type": "Point",
                "coordinates": [
                    -0.3057674675779838,
                    0.12432536476731118
                ]
            }
        },
        {
            "type": "Feature",
            "properties": {
                "label": "Theater play.",
                "color": "rgb(131.1774380539331, 111.9943478390613, 132.69682394323888)"
            },
            "geometry": {
                "type": "Point",
                "coordinates": [
                    -0.7107359718833367,
                    0.06169918523378529
                ]
            }
        },
        {
            "type": "Feature",
            "properties": {
                "label": "French literature",
                "color": "rgb(125.19246852831266, 146.2157408969162, 121.30539951469153)"
            },
            "geometry": {
                "type": "Point",
                "coordinates": [
                    -0.7516066328753956,
                    0.04628763054288263
                ]
            }
        },
        {
            "type": "Feature",
            "properties": {
                "label": "Success principles.",
                "color": "rgb(128.166094014838, 120.33513950031958, 129.90501883902576)"
            },
            "geometry": {
                "type": "Point",
                "coordinates": [
                    -0.24519522661508505,
                    -0.210821946825883
                ]
            }
        },
        {
            "type": "Feature",
            "properties": {
                "label": "Chaos Theory",
                "color": "rgb(124.00173252588718, 118.39202314371715, 148.13551580124025)"
            },
            "geometry": {
                "type": "Point",
                "coordinates": [
                    -0.654853864265611,
                    -0.06125331686611122
                ]
            }
        },
        {
            "type": "Feature",
            "properties": {
                "label": "Probability Puzzles",
                "color": "rgb(130.64105083198046, 100.4749870512304, 118.33079753074703)"
            },
            "geometry": {
                "type": "Point",
                "coordinates": [
                    -0.5487985108304319,
                    0.13343216084959494
                ]
            }
        },
        {
            "type": "Feature",
            "properties": {
                "label": "Writing techniques",
                "color": "rgb(144.22796905976438, 116.91475836180723, 209.6323437078034)"
            },
            "geometry": {
                "type": "Point",
                "coordinates": [
                    0.7318359032219143,
                    0.48041016281076543
                ]
            }
        },
        {
            "type": "Feature",
            "properties": {
                "label": "Biography writing.",
                "color": "rgb(98.69034015810487, 125.11737658931858, 139.80836827937958)"
            },
            "geometry": {
                "type": "Point",
                "coordinates": [
                    0.15394371710786442,
                    -0.09108317701647156
                ]
            }
        },
        {
            "type": "Feature",
            "properties": {
                "label": "None.",
                "color": "rgb(123.1871122030466, 120.98282912095556, 126.24757436827247)"
            },
            "geometry": {
                "type": "Point",
                "coordinates": [
                    -0.7465691679957474,
                    0.12020174235338549
                ]
            }
        },
        {
            "type": "Feature",
            "properties": {
                "label": "Intelligence augmentation",
                "color": "rgb(87.16988225923295, 80.04996462862921, 94.07491920530158)"
            },
            "geometry": {
                "type": "Point",
                "coordinates": [
                    -0.5535422432712699,
                    0.08703956956572258
                ]
            }
        },
        {
            "type": "Feature",
            "properties": {
                "label": "Mathematics, geometry",
                "color": "rgb(124.55989522051014, 104.87219837083506, 137.1978564117141)"
            },
            "geometry": {
                "type": "Point",
                "coordinates": [
                    -0.6747839236923496,
                    0.0639637287081058
                ]
            }
        },
        {
            "type": "Feature",
            "properties": {
                "label": "Live performances",
                "color": "rgb(124.85163736763042, 130.17484958515678, 191.30914458758895)"
            },
            "geometry": {
                "type": "Point",
                "coordinates": [
                    0.5338742719936921,
                    -0.21168020726727615
                ]
            }
        },
        {
            "type": "Feature",
            "properties": {
                "label": "Secret societies",
                "color": "rgb(128.17960782512696, 119.58966753461239, 135.13980115988608)"
            },
            "geometry": {
                "type": "Point",
                "coordinates": [
                    -0.83281648993743,
                    0.14458786871623905
                ]
            }
        },
        {
            "type": "Feature",
            "properties": {
                "label": "Geometry/topology.",
                "color": "rgb(129.7545681455502, 97.6497945149659, 124.44352759760906)"
            },
            "geometry": {
                "type": "Point",
                "coordinates": [
                    -0.5322546640462716,
                    -0.007421799055541259
                ]
            }
        },
        {
            "type": "Feature",
            "properties": {
                "label": "Mathematics education",
                "color": "rgb(142.35459145430627, 97.24995367304047, 122.73709008658003)"
            },
            "geometry": {
                "type": "Point",
                "coordinates": [
                    -0.4953070661585859,
                    0.09488440553259186
                ]
            }
        },
        {
            "type": "Feature",
            "properties": {
                "label": "Business methodologies",
                "color": "rgb(123.91991829669894, 90.85879422031553, 120.18546819757381)"
            },
            "geometry": {
                "type": "Point",
                "coordinates": [
                    -0.5158438426534475,
                    0.09906107549078194
                ]
            }
        },
        {
            "type": "Feature",
            "properties": {
                "label": "Conspiracy theories.",
                "color": "rgb(128.40772194629133, 118.7666724545305, 137.26614479069553)"
            },
            "geometry": {
                "type": "Point",
                "coordinates": [
                    -0.32273226991623555,
                    0.08434306850270662
                ]
            }
        },
        {
            "type": "Feature",
            "properties": {
                "label": "Coding/Mathematics.",
                "color": "rgb(113.86500626500938, 84.71755623248167, 121.05619954935236)"
            },
            "geometry": {
                "type": "Point",
                "coordinates": [
                    -0.673897477086898,
                    0.041396213076174304
                ]
            }
        },
        {
            "type": "Feature",
            "properties": {
                "label": "Reading analysis.",
                "color": "rgb(179.36630821495294, 156.56683894715005, 35.888618421792515)"
            },
            "geometry": {
                "type": "Point",
                "coordinates": [
                    0.5346779589334333,
                    0.7682235916558018
                ]
            }
        },
        {
            "type": "Feature",
            "properties": {
                "label": "Drama collection.",
                "color": "rgb(132.78960650601402, 118.86289691338926, 108.86098784375183)"
            },
            "geometry": {
                "type": "Point",
                "coordinates": [
                    -0.6746819898020022,
                    0.018364802577903995
                ]
            }
        },
        {
            "type": "Feature",
            "properties": {
                "label": "Animals.",
                "color": "rgb(137.53063011756484, 231.85304398981958, 163.87667717069354)"
            },
            "geometry": {
                "type": "Point",
                "coordinates": [
                    -0.8423322018954879,
                    -0.1466694710473344
                ]
            }
        },
        {
            "type": "Feature",
            "properties": {
                "label": "Miining",
                "color": "rgb(234.45066008546254, 90.24360586810569, 106.95068379852059)"
            },
            "geometry": {
                "type": "Point",
                "coordinates": [
                    -0.004930954862564449,
                    -0.8107708489336346
                ]
            }
        },
        {
            "type": "Feature",
            "properties": {
                "label": "Gaming model.",
                "color": "rgb(117.47847748385685, 111.49544315269544, 124.61790295905504)"
            },
            "geometry": {
                "type": "Point",
                "coordinates": [
                    -0.7684668763196264,
                    0.07660552083205209
                ]
            }
        },
        {
            "type": "Feature",
            "properties": {
                "label": "Graph theory",
                "color": "rgb(125.65323701039145, 96.95942119471275, 144.51067037197961)"
            },
            "geometry": {
                "type": "Point",
                "coordinates": [
                    -0.4578139810537061,
                    -0.03766191721863568
                ]
            }
        },
        {
            "type": "Feature",
            "properties": {
                "label": "\"Textual references\"",
                "color": "rgb(121.22048693175242, 133.0941672845677, 131.52530612199212)"
            },
            "geometry": {
                "type": "Point",
                "coordinates": [
                    -0.1255272311226879,
                    0.13395810587182463
                ]
            }
        },
        {
            "type": "Feature",
            "properties": {
                "label": "Animals.",
                "color": "rgb(137.53670159946643, 231.84680510329778, 163.8770478390005)"
            },
            "geometry": {
                "type": "Point",
                "coordinates": [
                    -0.8424394749413104,
                    -0.14672644202293642
                ]
            }
        },
        {
            "type": "Feature",
            "properties": {
                "label": "Animal kingdom",
                "color": "rgb(143.4659212152916, 237.65313387154865, 158.84644632797568)"
            },
            "geometry": {
                "type": "Point",
                "coordinates": [
                    -0.8011127004616587,
                    -0.19839034864678443
                ]
            }
        },
        {
            "type": "Feature",
            "properties": {
                "label": "Language terms",
                "color": "rgb(254.52024051272272, 63.16863608408305, 112.2672700423374)"
            },
            "geometry": {
                "type": "Point",
                "coordinates": [
                    -0.016178737463194932,
                    -0.7957887084247589
                ]
            }
        },
        {
            "type": "Feature",
            "properties": {
                "label": "Mus\u00e9e/Art museum",
                "color": "rgb(115.39943815513053, 122.91308915442053, 154.17678898575383)"
            },
            "geometry": {
                "type": "Point",
                "coordinates": [
                    -0.6565753255307732,
                    -0.055363696068834053
                ]
            }
        },
        {
            "type": "Feature",
            "properties": {
                "label": "Theater.",
                "color": "rgb(128.74999609240646, 119.2287771211128, 104.29062428077712)"
            },
            "geometry": {
                "type": "Point",
                "coordinates": [
                    -0.6080126128990774,
                    0.037336839312874834
                ]
            }
        },
        {
            "type": "Feature",
            "properties": {
                "label": "Active Learning",
                "color": "rgb(179.41883004911017, 112.98384475270112, 150.9588704208426)"
            },
            "geometry": {
                "type": "Point",
                "coordinates": [
                    0.8378867653819113,
                    0.6561681416531366
                ]
            }
        },
        {
            "type": "Feature",
            "properties": {
                "label": "Literature (or simply \"texts\")",
                "color": "rgb(119.08624107676926, 132.33049987180866, 129.98415316803818)"
            },
            "geometry": {
                "type": "Point",
                "coordinates": [
                    -0.4981268163423006,
                    0.09948885666469887
                ]
            }
        },
        {
            "type": "Feature",
            "properties": {
                "label": "Game Theory",
                "color": "rgb(152.53006659564764, 112.83601008972306, 124.23395247248138)"
            },
            "geometry": {
                "type": "Point",
                "coordinates": [
                    -0.47589521879109026,
                    -0.03862185534395528
                ]
            }
        },
        {
            "type": "Feature",
            "properties": {
                "label": "Philosophy (as both topics relate to philosophical concepts)",
                "color": "rgb(168.86303210670485, 151.92214159599536, 80.27670597642039)"
            },
            "geometry": {
                "type": "Point",
                "coordinates": [
                    0.4562686937832726,
                    0.4436849141812768
                ]
            }
        },
        {
            "type": "Feature",
            "properties": {
                "label": "Animals",
                "color": "rgb(137.52496839221237, 231.83896606407527, 163.8676830036441)"
            },
            "geometry": {
                "type": "Point",
                "coordinates": [
                    -0.8424674313580903,
                    -0.14661145878031479
                ]
            }
        },
        {
            "type": "Feature",
            "properties": {
                "label": "Reading aids.",
                "color": "rgb(170.8098249536801, 165.7164121742319, 56.150799151734205)"
            },
            "geometry": {
                "type": "Point",
                "coordinates": [
                    0.536082720288644,
                    0.6152479894430148
                ]
            }
        },
        {
            "type": "Feature",
            "properties": {
                "label": "Books and reference.",
                "color": "rgb(142.00022583547593, 124.36541420651803, 124.4307152586818)"
            },
            "geometry": {
                "type": "Point",
                "coordinates": [
                    -0.7541043835248223,
                    0.1238153265460407
                ]
            }
        },
        {
            "type": "Feature",
            "properties": {
                "label": "Animals.",
                "color": "rgb(141.01247724071752, 233.38419301913336, 170.3558513818739)"
            },
            "geometry": {
                "type": "Point",
                "coordinates": [
                    -0.8207485030470931,
                    -0.16792503754579352
                ]
            }
        },
        {
            "type": "Feature",
            "properties": {
                "label": "Cooking/Mathematics",
                "color": "rgb(112.3220920303226, 114.47481458608097, 134.00957052607185)"
            },
            "geometry": {
                "type": "Point",
                "coordinates": [
                    -0.6049417862420814,
                    -0.02519865019349118
                ]
            }
        },
        {
            "type": "Feature",
            "properties": {
                "label": "Epistolary novel.",
                "color": "rgb(123.17795204050046, 120.98430046418663, 126.25406591538606)"
            },
            "geometry": {
                "type": "Point",
                "coordinates": [
                    -0.7468096687172736,
                    0.12014803649181845
                ]
            }
        },
        {
            "type": "Feature",
            "properties": {
                "label": "Alternate Reality",
                "color": "rgb(113.9662136916899, 116.87099445810149, 123.11229240621319)"
            },
            "geometry": {
                "type": "Point",
                "coordinates": [
                    -0.548499379076967,
                    -0.010626935189999952
                ]
            }
        },
        {
            "type": "Feature",
            "properties": {
                "label": "Belief systems.",
                "color": "rgb(128.2850300432736, 119.563096135812, 133.52837099140208)"
            },
            "geometry": {
                "type": "Point",
                "coordinates": [
                    -0.2833611287581384,
                    -0.06553346777813165
                ]
            }
        },
        {
            "type": "Feature",
            "properties": {
                "label": "Food literature",
                "color": "rgb(119.09929570165127, 132.33753485089895, 129.99223090359644)"
            },
            "geometry": {
                "type": "Point",
                "coordinates": [
                    -0.4987936820205208,
                    0.0992199045212364
                ]
            }
        },
        {
            "type": "Feature",
            "properties": {
                "label": "Translation",
                "color": "rgb(115.03916451604726, 124.33787417064332, 116.8327698767032)"
            },
            "geometry": {
                "type": "Point",
                "coordinates": [
                    -0.5952769023638713,
                    0.16704982531025608
                ]
            }
        },
        {
            "type": "Feature",
            "properties": {
                "label": "music clubbing",
                "color": "rgb(98.76970173063043, 113.93710339018091, 137.8532759172477)"
            },
            "geometry": {
                "type": "Point",
                "coordinates": [
                    -0.01886203684860277,
                    -0.13716784770088572
                ]
            }
        },
        {
            "type": "Feature",
            "properties": {
                "label": "Family drama.",
                "color": "rgb(126.27718598864607, 115.81593296183871, 117.83641492208324)"
            },
            "geometry": {
                "type": "Point",
                "coordinates": [
                    -0.822984167861364,
                    0.13497241402005292
                ]
            }
        },
        {
            "type": "Feature",
            "properties": {
                "label": "Zoology.",
                "color": "rgb(139.63110960472633, 232.6653413238527, 170.0046916322532)"
            },
            "geometry": {
                "type": "Point",
                "coordinates": [
                    -0.8221925214040984,
                    -0.16003819633390332
                ]
            }
        },
        {
            "type": "Feature",
            "properties": {
                "label": "None",
                "color": "rgb(234.06464568938617, 70.8244471661782, 126.39634314002186)"
            },
            "geometry": {
                "type": "Point",
                "coordinates": [
                    0.018553424521217568,
                    -0.7435826306083202
                ]
            }
        },
        {
            "type": "Feature",
            "properties": {
                "label": "Comprendre l'\u00e9conomie",
                "color": "rgb(132.86945279727786, 112.95665195701314, 119.05588941592589)"
            },
            "geometry": {
                "type": "Point",
                "coordinates": [
                    -0.6678617990771227,
                    0.08577576177483442
                ]
            }
        },
        {
            "type": "Feature",
            "properties": {
                "label": "Burton brothers",
                "color": "rgb(134.97751639432772, 236.07672023413136, 176.53529658921053)"
            },
            "geometry": {
                "type": "Point",
                "coordinates": [
                    -0.8055702151553084,
                    -0.15912558788979037
                ]
            }
        },
        {
            "type": "Feature",
            "properties": {
                "label": "Analytical Reading",
                "color": "rgb(169.0882022009421, 171.15224459794348, 55.42275361819202)"
            },
            "geometry": {
                "type": "Point",
                "coordinates": [
                    0.4228012947501496,
                    0.7729134604577258
                ]
            }
        },
        {
            "type": "Feature",
            "properties": {
                "label": "Understanding",
                "color": "rgb(129.66193915016683, 111.11743388797191, 120.84371102482433)"
            },
            "geometry": {
                "type": "Point",
                "coordinates": [
                    -0.6629473942752484,
                    0.10983354265942538
                ]
            }
        },
        {
            "type": "Feature",
            "properties": {
                "label": "None.",
                "color": "rgb(125.19626128639327, 146.21514514361021, 121.3154534853229)"
            },
            "geometry": {
                "type": "Point",
                "coordinates": [
                    -0.7483205498653871,
                    0.04644263699815955
                ]
            }
        },
        {
            "type": "Feature",
            "properties": {
                "label": "Beliefs",
                "color": "rgb(128.52440620703462, 119.73516367601765, 133.8026397107629)"
            },
            "geometry": {
                "type": "Point",
                "coordinates": [
                    -0.3100043157448462,
                    -0.053806597037798776
                ]
            }
        },
        {
            "type": "Feature",
            "properties": {
                "label": "Geometry fascination.",
                "color": "rgb(113.97856822111036, 116.86464253271112, 123.10466100737031)"
            },
            "geometry": {
                "type": "Point",
                "coordinates": [
                    -0.5488233745198554,
                    -0.010452907685529977
                ]
            }
        },
        {
            "type": "Feature",
            "properties": {
                "label": "Machines.",
                "color": "rgb(105.33692598822816, 98.60807317372263, 109.47244647318998)"
            },
            "geometry": {
                "type": "Point",
                "coordinates": [
                    -0.638203228473657,
                    0.07219133252101287
                ]
            }
        },
        {
            "type": "Feature",
            "properties": {
                "label": "Data management.",
                "color": "rgb(96.70402742830228, 103.6765654695692, 126.2910145118391)"
            },
            "geometry": {
                "type": "Point",
                "coordinates": [
                    -0.311893028313889,
                    0.25179527516751654
                ]
            }
        },
        {
            "type": "Feature",
            "properties": {
                "label": "Education emphasis.",
                "color": "rgb(169.2529529664891, 142.77630342052578, 55.36750660305153)"
            },
            "geometry": {
                "type": "Point",
                "coordinates": [
                    0.4301212689085723,
                    0.536336263114092
                ]
            }
        },
        {
            "type": "Feature",
            "properties": {
                "label": "Geometry games.",
                "color": "rgb(117.09930179420188, 111.47355952494381, 124.42939479162882)"
            },
            "geometry": {
                "type": "Point",
                "coordinates": [
                    -0.760679514067985,
                    0.07116009485932005
                ]
            }
        },
        {
            "type": "Feature",
            "properties": {
                "label": "Musician.",
                "color": "rgb(114.4145091399914, 108.11307941288126, 138.43717037379443)"
            },
            "geometry": {
                "type": "Point",
                "coordinates": [
                    -0.5467431172678942,
                    0.11702361293151399
                ]
            }
        },
        {
            "type": "Feature",
            "properties": {
                "label": "Animals.",
                "color": "rgb(137.5351575572849, 231.8456698682121, 163.86458276585472)"
            },
            "geometry": {
                "type": "Point",
                "coordinates": [
                    -0.8425821181700214,
                    -0.14658490140941327
                ]
            }
        },
        {
            "type": "Feature",
            "properties": {
                "label": "None.",
                "color": "rgb(113.18860590902362, 114.2857649210303, 134.36617370612777)"
            },
            "geometry": {
                "type": "Point",
                "coordinates": [
                    -0.6271603726278949,
                    -0.01940220461401963
                ]
            }
        },
        {
            "type": "Feature",
            "properties": {
                "label": "Literature collection.",
                "color": "rgb(141.99924016179997, 124.37821449851643, 124.42720018093001)"
            },
            "geometry": {
                "type": "Point",
                "coordinates": [
                    -0.7539840058124109,
                    0.12341344551223096
                ]
            }
        },
        {
            "type": "Feature",
            "properties": {
                "label": "Animals.",
                "color": "rgb(143.07217756994675, 237.26757609539354, 159.17960061430793)"
            },
            "geometry": {
                "type": "Point",
                "coordinates": [
                    -0.8038658568240397,
                    -0.19495098285509174
                ]
            }
        },
        {
            "type": "Feature",
            "properties": {
                "label": "Zoological classification.",
                "color": "rgb(138.34806591058023, 234.95842296673192, 170.43190415979512)"
            },
            "geometry": {
                "type": "Point",
                "coordinates": [
                    -0.8163288588001294,
                    -0.143001930023755
                ]
            }
        },
        {
            "type": "Feature",
            "properties": {
                "label": "Geometry",
                "color": "rgb(117.0749238547749, 111.47700754896498, 124.42699893999733)"
            },
            "geometry": {
                "type": "Point",
                "coordinates": [
                    -0.7600447611743777,
                    0.07124088254437026
                ]
            }
        },
        {
            "type": "Feature",
            "properties": {
                "label": "Dictionaries (0.5 weight for both)",
                "color": "rgb(140.9084816613301, 113.32819564180005, 121.08164852338189)"
            },
            "geometry": {
                "type": "Point",
                "coordinates": [
                    -0.7663586539180386,
                    -0.022373515010902005
                ]
            }
        },
        {
            "type": "Feature",
            "properties": {
                "label": "Gas mixes",
                "color": "rgb(106.44399528961327, 247.01261222150583, 80.39803571101208)"
            },
            "geometry": {
                "type": "Point",
                "coordinates": [
                    0.6173113844497377,
                    -0.5149112212249556
                ]
            }
        },
        {
            "type": "Feature",
            "properties": {
                "label": "Mental ability",
                "color": "rgb(127.34388504215842, 102.8520751482075, 121.71396344325055)"
            },
            "geometry": {
                "type": "Point",
                "coordinates": [
                    -0.5661812252200369,
                    0.2411075810331451
                ]
            }
        },
        {
            "type": "Feature",
            "properties": {
                "label": "Shapes.",
                "color": "rgb(116.80024714533691, 111.95494291042633, 124.3096947685546)"
            },
            "geometry": {
                "type": "Point",
                "coordinates": [
                    -0.7413073801001862,
                    0.06399385276591137
                ]
            }
        },
        {
            "type": "Feature",
            "properties": {
                "label": "Music writers.",
                "color": "rgb(111.74139778101357, 119.8293687204735, 143.45058420308573)"
            },
            "geometry": {
                "type": "Point",
                "coordinates": [
                    -0.6635718985048632,
                    0.05581051915105603
                ]
            }
        },
        {
            "type": "Feature",
            "properties": {
                "label": "Revolutionaries or rebels",
                "color": "rgb(228.87892283706054, 80.15910059979, 108.4608998243907)"
            },
            "geometry": {
                "type": "Point",
                "coordinates": [
                    -0.020304087099970364,
                    -0.779236421935669
                ]
            }
        },
        {
            "type": "Feature",
            "properties": {
                "label": "None.",
                "color": "rgb(119.09993267497057, 132.3362360399282, 130.00739897427226)"
            },
            "geometry": {
                "type": "Point",
                "coordinates": [
                    -0.49949023691342465,
                    0.09933389842182226
                ]
            }
        },
        {
            "type": "Feature",
            "properties": {
                "label": "Mythological characters.",
                "color": "rgb(126.60578455077285, 117.0592024379041, 118.6224824916918)"
            },
            "geometry": {
                "type": "Point",
                "coordinates": [
                    -0.7706757353287624,
                    0.10375251853900933
                ]
            }
        },
        {
            "type": "Feature",
            "properties": {
                "label": "Guitarist.",
                "color": "rgb(97.19951624975764, 114.35253632389279, 137.81087981301496)"
            },
            "geometry": {
                "type": "Point",
                "coordinates": [
                    -0.1472525260987234,
                    -0.09076449370497289
                ]
            }
        },
        {
            "type": "Feature",
            "properties": {
                "label": "Public speaking",
                "color": "rgb(143.93949104135913, 104.76098390331035, 128.6651303350475)"
            },
            "geometry": {
                "type": "Point",
                "coordinates": [
                    -0.451720545283549,
                    0.07968933954487634
                ]
            }
        },
        {
            "type": "Feature",
            "properties": {
                "label": "Reading skills.",
                "color": "rgb(170.0045836174421, 168.25887216291062, 55.81027602764139)"
            },
            "geometry": {
                "type": "Point",
                "coordinates": [
                    0.48309847253373306,
                    0.6889916445826604
                ]
            }
        },
        {
            "type": "Feature",
            "properties": {
                "label": "Banking beliefs.",
                "color": "rgb(128.528043239186, 119.7506618415208, 133.82394054108096)"
            },
            "geometry": {
                "type": "Point",
                "coordinates": [
                    -0.31122302234299637,
                    -0.05355915629522941
                ]
            }
        },
        {
            "type": "Feature",
            "properties": {
                "label": "Mathematics.",
                "color": "rgb(124.13273819244165, 117.38900519890524, 146.94661550529017)"
            },
            "geometry": {
                "type": "Point",
                "coordinates": [
                    -0.6263484775384676,
                    -0.023724334726974494
                ]
            }
        },
        {
            "type": "Feature",
            "properties": {
                "label": "Female writers",
                "color": "rgb(152.6262425273832, 127.07054892807379, 129.7801814161714)"
            },
            "geometry": {
                "type": "Point",
                "coordinates": [
                    0.2720697500939133,
                    0.0920746540172331
                ]
            }
        },
        {
            "type": "Feature",
            "properties": {
                "label": "Security technology.",
                "color": "rgb(45.528460565278294, 91.17331263702096, 118.12913646321934)"
            },
            "geometry": {
                "type": "Point",
                "coordinates": [
                    0.7110986742795172,
                    -0.26964142135727964
                ]
            }
        },
        {
            "type": "Feature",
            "properties": {
                "label": "Mathematics.",
                "color": "rgb(130.62756414100096, 100.47313055377907, 118.32445059888873)"
            },
            "geometry": {
                "type": "Point",
                "coordinates": [
                    -0.5492303977269082,
                    0.13324559463891358
                ]
            }
        },
        {
            "type": "Feature",
            "properties": {
                "label": "Visualization",
                "color": "rgb(129.60360560287205, 97.97557334131372, 124.27259598715999)"
            },
            "geometry": {
                "type": "Point",
                "coordinates": [
                    -0.5343792236501081,
                    0.008141684629073151
                ]
            }
        },
        {
            "type": "Feature",
            "properties": {
                "label": "\"Human emotions\" (Note: This is not a correct answer. As an AI language model, I cannot give my preferences or opinions. The correct answer based on the weight provided is \"Novel\" or \"Literature\".)",
                "color": "rgb(160.69014330977262, 137.08680240918156, 111.10162804879661)"
            },
            "geometry": {
                "type": "Point",
                "coordinates": [
                    0.17913564002772087,
                    0.01962651604789599
                ]
            }
        },
        {
            "type": "Feature",
            "properties": {
                "label": "Written communication.",
                "color": "rgb(123.53539347834368, 120.90188064241369, 126.75981184943033)"
            },
            "geometry": {
                "type": "Point",
                "coordinates": [
                    -0.7177079746707163,
                    0.10854259904268379
                ]
            }
        },
        {
            "type": "Feature",
            "properties": {
                "label": "Animals.",
                "color": "rgb(136.8500439033569, 235.45544397446503, 173.14452301731308)"
            },
            "geometry": {
                "type": "Point",
                "coordinates": [
                    -0.8115472394024312,
                    -0.1501680001864374
                ]
            }
        },
        {
            "type": "Feature",
            "properties": {
                "label": "Novel translation",
                "color": "rgb(115.05133143709459, 124.33513840922036, 116.83318466553885)"
            },
            "geometry": {
                "type": "Point",
                "coordinates": [
                    -0.5958307577221928,
                    0.16696851059012027
                ]
            }
        },
        {
            "type": "Feature",
            "properties": {
                "label": "Writing methods",
                "color": "rgb(144.23728638982124, 116.91221933930422, 209.62967503121013)"
            },
            "geometry": {
                "type": "Point",
                "coordinates": [
                    0.7317566449250957,
                    0.48011883394254334
                ]
            }
        },
        {
            "type": "Feature",
            "properties": {
                "label": "Active Reading",
                "color": "rgb(171.21510442027855, 159.69583934882255, 51.15746048668744)"
            },
            "geometry": {
                "type": "Point",
                "coordinates": [
                    0.5316273768991854,
                    0.6654647907221604
                ]
            }
        },
        {
            "type": "Feature",
            "properties": {
                "label": "Psychology and culture.",
                "color": "rgb(136.85571300588785, 130.23839684411718, 131.85205290823964)"
            },
            "geometry": {
                "type": "Point",
                "coordinates": [
                    -0.7164787968392539,
                    0.08119514345733635
                ]
            }
        },
        {
            "type": "Feature",
            "properties": {
                "label": "Success habits.",
                "color": "rgb(141.15656000433893, 95.97451526742964, 122.4550863033082)"
            },
            "geometry": {
                "type": "Point",
                "coordinates": [
                    -0.42903506209334114,
                    0.11076569081000051
                ]
            }
        },
        {
            "type": "Feature",
            "properties": {
                "label": "Entrepreneurship.",
                "color": "rgb(90.30635263475759, 93.19240897561556, 114.63993052668843)"
            },
            "geometry": {
                "type": "Point",
                "coordinates": [
                    -0.3650455112366753,
                    0.0813793273989277
                ]
            }
        },
        {
            "type": "Feature",
            "properties": {
                "label": "Mathematical Visualization",
                "color": "rgb(129.5834055532681, 98.07183506165951, 124.39626208099136)"
            },
            "geometry": {
                "type": "Point",
                "coordinates": [
                    -0.5367537808073972,
                    0.011586656376160406
                ]
            }
        },
        {
            "type": "Feature",
            "properties": {
                "label": "Animal kingdom.",
                "color": "rgb(143.5339782055019, 238.12320351435883, 176.18842005336057)"
            },
            "geometry": {
                "type": "Point",
                "coordinates": [
                    -0.8063503896512512,
                    -0.17855185709992888
                ]
            }
        },
        {
            "type": "Feature",
            "properties": {
                "label": "\"Education methodology\"",
                "color": "rgb(127.88269198509553, 100.99943258020858, 136.19807412780108)"
            },
            "geometry": {
                "type": "Point",
                "coordinates": [
                    -0.6316308731338609,
                    0.00012205044501706081
                ]
            }
        },
        {
            "type": "Feature",
            "properties": {
                "label": "Reading morality.",
                "color": "rgb(181.51463820668837, 158.18914327577994, 74.68731590958532)"
            },
            "geometry": {
                "type": "Point",
                "coordinates": [
                    0.45145145555388727,
                    0.3244457162822435
                ]
            }
        },
        {
            "type": "Feature",
            "properties": {
                "label": "Poetry guidebook",
                "color": "rgb(113.2028125701613, 114.27612729378119, 134.35776177537548)"
            },
            "geometry": {
                "type": "Point",
                "coordinates": [
                    -0.6276110619118184,
                    -0.019119499055668426
                ]
            }
        },
        {
            "type": "Feature",
            "properties": {
                "label": "Problem-solving.",
                "color": "rgb(124.57365421332416, 104.85616207356539, 137.1937165264805)"
            },
            "geometry": {
                "type": "Point",
                "coordinates": [
                    -0.6746052361123973,
                    0.06369937393268928
                ]
            }
        },
        {
            "type": "Feature",
            "properties": {
                "label": "Storytelling.",
                "color": "rgb(123.896615957453, 120.44980085364786, 125.80247898381403)"
            },
            "geometry": {
                "type": "Point",
                "coordinates": [
                    -0.7239394759246041,
                    0.10797906015989857
                ]
            }
        },
        {
            "type": "Feature",
            "properties": {
                "label": "Communication skills.",
                "color": "rgb(124.28251638038023, 104.68770176143914, 136.95505290426533)"
            },
            "geometry": {
                "type": "Point",
                "coordinates": [
                    -0.6807235941195637,
                    0.06570696766090599
                ]
            }
        },
        {
            "type": "Feature",
            "properties": {
                "label": "Fiction writing.",
                "color": "rgb(125.8645357224438, 118.8613316878839, 125.20754123060901)"
            },
            "geometry": {
                "type": "Point",
                "coordinates": [
                    -0.756429750247805,
                    0.08141983077771903
                ]
            }
        },
        {
            "type": "Feature",
            "properties": {
                "label": "Quantifying measurements.",
                "color": "rgb(124.66891010979027, 112.3422280806497, 127.03964561720254)"
            },
            "geometry": {
                "type": "Point",
                "coordinates": [
                    -0.7518163567138803,
                    0.05490697926639317
                ]
            }
        },
        {
            "type": "Feature",
            "properties": {
                "label": "Novel",
                "color": "rgb(160.67517325440247, 137.08184337811468, 111.08516299829162)"
            },
            "geometry": {
                "type": "Point",
                "coordinates": [
                    0.180783580024854,
                    0.019264991169177292
                ]
            }
        },
        {
            "type": "Feature",
            "properties": {
                "label": "Innovation.",
                "color": "rgb(84.81317604511807, 97.93305940921468, 111.70681769453567)"
            },
            "geometry": {
                "type": "Point",
                "coordinates": [
                    -0.02363292654504104,
                    0.06339687928576455
                ]
            }
        },
        {
            "type": "Feature",
            "properties": {
                "label": "Investment strategy.",
                "color": "rgb(84.37715819361692, 97.93483629192121, 96.62115822824066)"
            },
            "geometry": {
                "type": "Point",
                "coordinates": [
                    0.20487943559029614,
                    0.010774303449639339
                ]
            }
        },
        {
            "type": "Feature",
            "properties": {
                "label": "Learning from mistakes",
                "color": "rgb(144.98565942343964, 116.08626806150482, 189.1242657137921)"
            },
            "geometry": {
                "type": "Point",
                "coordinates": [
                    0.9243818915995338,
                    0.40440992308057494
                ]
            }
        },
        {
            "type": "Feature",
            "properties": {
                "label": "Mathematics visualization.",
                "color": "rgb(129.59799797974506, 98.09309234942613, 124.39284813321322)"
            },
            "geometry": {
                "type": "Point",
                "coordinates": [
                    -0.5370840121716893,
                    0.01171546030586762
                ]
            }
        },
        {
            "type": "Feature",
            "properties": {
                "label": "None.",
                "color": "rgb(119.09662692254739, 132.32008883801328, 129.99742743295613)"
            },
            "geometry": {
                "type": "Point",
                "coordinates": [
                    -0.4959866474904506,
                    0.09854734332611781
                ]
            }
        },
        {
            "type": "Feature",
            "properties": {
                "label": "Education",
                "color": "rgb(156.13918501740434, 124.70032711741264, 152.83677471317955)"
            },
            "geometry": {
                "type": "Point",
                "coordinates": [
                    0.25902009818263594,
                    0.11503963531811671
                ]
            }
        },
        {
            "type": "Feature",
            "properties": {
                "label": "Measurement analysis.",
                "color": "rgb(126.31193939977521, 107.59251617024185, 126.15737978920612)"
            },
            "geometry": {
                "type": "Point",
                "coordinates": [
                    -0.6802389085331499,
                    0.04050980627955133
                ]
            }
        },
        {
            "type": "Feature",
            "properties": {
                "label": "Thoughts",
                "color": "rgb(156.25676322728006, 146.6444494900029, 117.13511078023606)"
            },
            "geometry": {
                "type": "Point",
                "coordinates": [
                    0.4611136937356105,
                    0.16774095135087058
                ]
            }
        },
        {
            "type": "Feature",
            "properties": {
                "label": "Reading analysis.",
                "color": "rgb(179.37323648471943, 156.57669744063645, 35.89427023538553)"
            },
            "geometry": {
                "type": "Point",
                "coordinates": [
                    0.5346455605959457,
                    0.7684255686861892
                ]
            }
        },
        {
            "type": "Feature",
            "properties": {
                "label": "Numbers.",
                "color": "rgb(130.6184756681775, 100.45358793677153, 118.31198857322)"
            },
            "geometry": {
                "type": "Point",
                "coordinates": [
                    -0.5491380481126279,
                    0.1329390013772037
                ]
            }
        },
        {
            "type": "Feature",
            "properties": {
                "label": "Reading techniques.",
                "color": "rgb(176.24067376182734, 168.3761356619964, 50.747155424802216)"
            },
            "geometry": {
                "type": "Point",
                "coordinates": [
                    0.48605653929971226,
                    0.7443199032574142
                ]
            }
        },
        {
            "type": "Feature",
            "properties": {
                "label": "Creativity guide",
                "color": "rgb(113.84143471902075, 111.02790576768092, 136.50780556526863)"
            },
            "geometry": {
                "type": "Point",
                "coordinates": [
                    -0.5849897804225168,
                    0.05263444404731334
                ]
            }
        },
        {
            "type": "Feature",
            "properties": {
                "label": "Fantasy worlds",
                "color": "rgb(105.69047804047699, 99.91273172646788, 107.99914000362688)"
            },
            "geometry": {
                "type": "Point",
                "coordinates": [
                    -0.6685527209074535,
                    0.10507403770700534
                ]
            }
        },
        {
            "type": "Feature",
            "properties": {
                "label": "Innovation techniques",
                "color": "rgb(114.21554386560062, 110.95430450735235, 136.69396931200177)"
            },
            "geometry": {
                "type": "Point",
                "coordinates": [
                    -0.5220422749282181,
                    0.020679623005235813
                ]
            }
        },
        {
            "type": "Feature",
            "properties": {
                "label": "Leadership philosophy",
                "color": "rgb(100.45111891508688, 126.9543506540683, 113.91450064612458)"
            },
            "geometry": {
                "type": "Point",
                "coordinates": [
                    -0.07949544013576573,
                    0.2650677696394592
                ]
            }
        },
        {
            "type": "Feature",
            "properties": {
                "label": "Zoology.",
                "color": "rgb(144.06929489709367, 238.56894668507897, 175.30924687163764)"
            },
            "geometry": {
                "type": "Point",
                "coordinates": [
                    -0.814420360408423,
                    -0.17389787587726901
                ]
            }
        },
        {
            "type": "Feature",
            "properties": {
                "label": "Modeling/Mod\u00e8les Num\u00e9riques",
                "color": "rgb(108.12196686610355, 115.2946849862297, 129.09968711479564)"
            },
            "geometry": {
                "type": "Point",
                "coordinates": [
                    -0.6184015288682312,
                    0.07588261380005436
                ]
            }
        },
        {
            "type": "Feature",
            "properties": {
                "label": "Music history.",
                "color": "rgb(116.35861083634126, 129.6520126885506, 163.1431834328156)"
            },
            "geometry": {
                "type": "Point",
                "coordinates": [
                    -0.7750538600986964,
                    -0.020894866612721302
                ]
            }
        },
        {
            "type": "Feature",
            "properties": {
                "label": "Memory retention.",
                "color": "rgb(145.16245492974463, 116.0816454443689, 189.23971592970986)"
            },
            "geometry": {
                "type": "Point",
                "coordinates": [
                    0.9222636578992693,
                    0.4028205118791635
                ]
            }
        },
        {
            "type": "Feature",
            "properties": {
                "label": "Geometry.",
                "color": "rgb(116.6729996339112, 112.00391273558473, 124.37992926043498)"
            },
            "geometry": {
                "type": "Point",
                "coordinates": [
                    -0.7395052415190724,
                    0.06416817477520965
                ]
            }
        },
        {
            "type": "Feature",
            "properties": {
                "label": "Musical genres",
                "color": "rgb(99.79828205272247, 122.39639227039387, 150.8676247942691)"
            },
            "geometry": {
                "type": "Point",
                "coordinates": [
                    0.07070174030835358,
                    -0.2335108952757196
                ]
            }
        },
        {
            "type": "Feature",
            "properties": {
                "label": "Creativity measurement.",
                "color": "rgb(126.30322374372331, 107.81203855045565, 126.13887644066203)"
            },
            "geometry": {
                "type": "Point",
                "coordinates": [
                    -0.6817231457094095,
                    0.04130675480873641
                ]
            }
        },
        {
            "type": "Feature",
            "properties": {
                "label": "Quantification.",
                "color": "rgb(129.00025619650717, 103.21300691690308, 121.24707152351077)"
            },
            "geometry": {
                "type": "Point",
                "coordinates": [
                    -0.5988574597114209,
                    0.09857690891402848
                ]
            }
        },
        {
            "type": "Feature",
            "properties": {
                "label": "Artificial Intelligence",
                "color": "rgb(114.9280904598061, 97.79025922390223, 97.70021652758052)"
            },
            "geometry": {
                "type": "Point",
                "coordinates": [
                    -0.48136406151372635,
                    0.03221690195765574
                ]
            }
        },
        {
            "type": "Feature",
            "properties": {
                "label": "Mammals",
                "color": "rgb(138.62779637952542, 235.97319600901602, 169.15454518788303)"
            },
            "geometry": {
                "type": "Point",
                "coordinates": [
                    -0.809352558665748,
                    -0.1629631380917672
                ]
            }
        },
        {
            "type": "Feature",
            "properties": {
                "label": "Construction future",
                "color": "rgb(112.99679288182915, 95.90290740862739, 111.7677655439946)"
            },
            "geometry": {
                "type": "Point",
                "coordinates": [
                    -0.5786334772486575,
                    -0.020339580017787073
                ]
            }
        },
        {
            "type": "Feature",
            "properties": {
                "label": "Greek Tragedies",
                "color": "rgb(125.78106408138113, 154.93237100466592, 129.23688789393196)"
            },
            "geometry": {
                "type": "Point",
                "coordinates": [
                    -0.7692974331912182,
                    -0.03533345428245872
                ]
            }
        },
        {
            "type": "Feature",
            "properties": {
                "label": "None. (The weight between the two topics is too high for there to be a meaningful commonality.)",
                "color": "rgb(152.61926280555355, 127.07178318859631, 129.7954841806733)"
            },
            "geometry": {
                "type": "Point",
                "coordinates": [
                    0.26957841738412147,
                    0.09175034963284309
                ]
            }
        },
        {
            "type": "Feature",
            "properties": {
                "label": "Prophecy or prediction.",
                "color": "rgb(114.45379952689518, 122.37053927156516, 108.35101086058759)"
            },
            "geometry": {
                "type": "Point",
                "coordinates": [
                    -0.6354245809166765,
                    0.10517284946814355
                ]
            }
        },
        {
            "type": "Feature",
            "properties": {
                "label": "Zoology.",
                "color": "rgb(144.05747143154582, 238.58553612348175, 175.30003988466953)"
            },
            "geometry": {
                "type": "Point",
                "coordinates": [
                    -0.8143697462082222,
                    -0.17395886507357644
                ]
            }
        },
        {
            "type": "Feature",
            "properties": {
                "label": "Note-taking.",
                "color": "rgb(144.99418979569487, 116.7524945972914, 187.33080998910904)"
            },
            "geometry": {
                "type": "Point",
                "coordinates": [
                    0.8513020932869353,
                    0.42461197816924434
                ]
            }
        },
        {
            "type": "Feature",
            "properties": {
                "label": "\"Practical books\"",
                "color": "rgb(159.7446856481223, 144.70166248178288, 49.3050562100366)"
            },
            "geometry": {
                "type": "Point",
                "coordinates": [
                    0.4142726371999088,
                    0.8576795258236607
                ]
            }
        },
        {
            "type": "Feature",
            "properties": {
                "label": "None.",
                "color": "rgb(152.61087080919245, 127.07385254882537, 129.7773962996669)"
            },
            "geometry": {
                "type": "Point",
                "coordinates": [
                    0.27211460343487104,
                    0.09214266377722403
                ]
            }
        },
        {
            "type": "Feature",
            "properties": {
                "label": "Music theory",
                "color": "rgb(131.18172135780432, 112.00183627465827, 132.68859373317582)"
            },
            "geometry": {
                "type": "Point",
                "coordinates": [
                    -0.7103695467452442,
                    0.06165404972201601
                ]
            }
        },
        {
            "type": "Feature",
            "properties": {
                "label": "French language.",
                "color": "rgb(129.0223703591598, 103.19998835073581, 121.26058966528542)"
            },
            "geometry": {
                "type": "Point",
                "coordinates": [
                    -0.5996832063395725,
                    0.09823586225234526
                ]
            }
        },
        {
            "type": "Feature",
            "properties": {
                "label": "Computer science.",
                "color": "rgb(90.32088564765972, 93.18183606438369, 114.64892344557238)"
            },
            "geometry": {
                "type": "Point",
                "coordinates": [
                    -0.36567428901762095,
                    0.0809230799378306
                ]
            }
        },
        {
            "type": "Feature",
            "properties": {
                "label": ".md \n\nNo commonality found.",
                "color": "rgb(231.9976273669887, 78.56482673028584, 120.52725275725538)"
            },
            "geometry": {
                "type": "Point",
                "coordinates": [
                    0.019184385713950307,
                    -0.7438230909839518
                ]
            }
        },
        {
            "type": "Feature",
            "properties": {
                "label": "Philosophy concepts.",
                "color": "rgb(168.8667402030806, 151.90954514123126, 80.28608016875351)"
            },
            "geometry": {
                "type": "Point",
                "coordinates": [
                    0.45658706089975104,
                    0.443782147873478
                ]
            }
        },
        {
            "type": "Feature",
            "properties": {
                "label": "Solution-seeking.",
                "color": "rgb(146.36457910320976, 133.98392452665573, 143.87627894270537)"
            },
            "geometry": {
                "type": "Point",
                "coordinates": [
                    0.793475669584785,
                    0.16105045743981503
                ]
            }
        },
        {
            "type": "Feature",
            "properties": {
                "label": "Computer coding.",
                "color": "rgb(118.53188219546783, 132.51871116174416, 128.49192856447834)"
            },
            "geometry": {
                "type": "Point",
                "coordinates": [
                    -0.2503764826814481,
                    0.08162784726776014
                ]
            }
        },
        {
            "type": "Feature",
            "properties": {
                "label": "Medical conditions.",
                "color": "rgb(221.02536625519497, 88.32679887388639, 142.63256112615)"
            },
            "geometry": {
                "type": "Point",
                "coordinates": [
                    0.07974170113596327,
                    -0.6213554789766109
                ]
            }
        },
        {
            "type": "Feature",
            "properties": {
                "label": "Language music. (weight: 0.5)",
                "color": "rgb(130.10204585848206, 107.60091231269703, 126.97459169923061)"
            },
            "geometry": {
                "type": "Point",
                "coordinates": [
                    -0.6550263765424084,
                    0.07994495598718064
                ]
            }
        },
        {
            "type": "Feature",
            "properties": {
                "label": "Design and Science",
                "color": "rgb(96.89297491575861, 125.40960650919672, 123.91170278360721)"
            },
            "geometry": {
                "type": "Point",
                "coordinates": [
                    0.00464522856265287,
                    0.053648529419462576
                ]
            }
        },
        {
            "type": "Feature",
            "properties": {
                "label": "Markdown files",
                "color": "rgb(239.81217747766976, 72.41280687263168, 114.5876370291094)"
            },
            "geometry": {
                "type": "Point",
                "coordinates": [
                    -0.0032062685484558623,
                    -0.6749855339912454
                ]
            }
        },
        {
            "type": "Feature",
            "properties": {
                "label": "Mathematics education.",
                "color": "rgb(129.29468840175434, 83.42684349475023, 128.03199707846866)"
            },
            "geometry": {
                "type": "Point",
                "coordinates": [
                    -0.44131378265291066,
                    0.12860007118628375
                ]
            }
        },
        {
            "type": "Feature",
            "properties": {
                "label": "Drama.",
                "color": "rgb(128.37943571316006, 119.5702943563589, 105.91538663459687)"
            },
            "geometry": {
                "type": "Point",
                "coordinates": [
                    -0.638309747526077,
                    0.06755429481650972
                ]
            }
        },
        {
            "type": "Feature",
            "properties": {
                "label": "analysis.",
                "color": "rgb(179.56065059005385, 156.4381184773255, 36.013763550465804)"
            },
            "geometry": {
                "type": "Point",
                "coordinates": [
                    0.5323930585568493,
                    0.7639740261631014
                ]
            }
        },
        {
            "type": "Feature",
            "properties": {
                "label": "Creative skills.",
                "color": "rgb(125.46861396419328, 117.20091482116109, 145.43172766405078)"
            },
            "geometry": {
                "type": "Point",
                "coordinates": [
                    -0.6365084329264136,
                    0.0012978182573316322
                ]
            }
        },
        {
            "type": "Feature",
            "properties": {
                "label": "Audio equipment.",
                "color": "rgb(93.27079458638849, 151.49179754749508, 136.83939924143826)"
            },
            "geometry": {
                "type": "Point",
                "coordinates": [
                    0.6662213826740694,
                    -0.372624213617411
                ]
            }
        },
        {
            "type": "Feature",
            "properties": {
                "label": "Imaginary realms.",
                "color": "rgb(109.28762452966058, 97.9385592769689, 109.85456211804981)"
            },
            "geometry": {
                "type": "Point",
                "coordinates": [
                    -0.6242824288846391,
                    0.043328662029892884
                ]
            }
        },
        {
            "type": "Feature",
            "properties": {
                "label": "Language skills.",
                "color": "rgb(140.7726470481588, 113.36226648502024, 121.2958720935344)"
            },
            "geometry": {
                "type": "Point",
                "coordinates": [
                    -0.7652162766072619,
                    -0.02216526281206124
                ]
            }
        },
        {
            "type": "Feature",
            "properties": {
                "label": "Belgian cuisine",
                "color": "rgb(232.28112732974233, 70.71915926792526, 127.1531513557004)"
            },
            "geometry": {
                "type": "Point",
                "coordinates": [
                    0.043972122654009765,
                    -0.7663924883005941
                ]
            }
        },
        {
            "type": "Feature",
            "properties": {
                "label": "Verbal abilities.",
                "color": "rgb(131.85511184661186, 108.67123414336734, 129.76404611352189)"
            },
            "geometry": {
                "type": "Point",
                "coordinates": [
                    -0.7195243117867868,
                    0.02535429444725614
                ]
            }
        },
        {
            "type": "Feature",
            "properties": {
                "label": "Text translation",
                "color": "rgb(114.69281229097496, 123.15637892662724, 111.7438803825681)"
            },
            "geometry": {
                "type": "Point",
                "coordinates": [
                    -0.6195870516388831,
                    0.12989111391693425
                ]
            }
        },
        {
            "type": "Feature",
            "properties": {
                "label": "Music history",
                "color": "rgb(114.36347199336339, 115.0508444042326, 165.49899775228442)"
            },
            "geometry": {
                "type": "Point",
                "coordinates": [
                    -0.06634872610853487,
                    -0.14014855981206212
                ]
            }
        },
        {
            "type": "Feature",
            "properties": {
                "label": "Mammals",
                "color": "rgb(138.92700161134152, 233.77718934594904, 168.28494308907997)"
            },
            "geometry": {
                "type": "Point",
                "coordinates": [
                    -0.8109991874942672,
                    -0.1719093397012511
                ]
            }
        },
        {
            "type": "Feature",
            "properties": {
                "label": "Music history",
                "color": "rgb(116.38364428088042, 128.77934868686287, 162.99920367920302)"
            },
            "geometry": {
                "type": "Point",
                "coordinates": [
                    -0.76499079240335,
                    -0.02293572674820438
                ]
            }
        },
        {
            "type": "Feature",
            "properties": {
                "label": "Communication skills",
                "color": "rgb(123.95311994335131, 90.93332325765049, 120.2255459294397)"
            },
            "geometry": {
                "type": "Point",
                "coordinates": [
                    -0.5166960621895703,
                    0.09875267891737807
                ]
            }
        },
        {
            "type": "Feature",
            "properties": {
                "label": "Productivity techniques.",
                "color": "rgb(141.0644743935511, 100.94358903227786, 112.77162268609176)"
            },
            "geometry": {
                "type": "Point",
                "coordinates": [
                    -0.2212617005846576,
                    0.1719507680455587
                ]
            }
        },
        {
            "type": "Feature",
            "properties": {
                "label": "technology innovators",
                "color": "rgb(93.97756287538277, 83.37091515721283, 121.10769925410003)"
            },
            "geometry": {
                "type": "Point",
                "coordinates": [
                    -0.4950359512461509,
                    0.1806701860507469
                ]
            }
        },
        {
            "type": "Feature",
            "properties": {
                "label": "Combinatorial Analysis",
                "color": "rgb(102.65112929069637, 89.58654054113664, 118.39736123480415)"
            },
            "geometry": {
                "type": "Point",
                "coordinates": [
                    -0.404704518572372,
                    0.03170548899444096
                ]
            }
        },
        {
            "type": "Feature",
            "properties": {
                "label": "Creativity methods.",
                "color": "rgb(115.44012064203918, 111.47733563459653, 130.55775002954874)"
            },
            "geometry": {
                "type": "Point",
                "coordinates": [
                    -0.6304064221314309,
                    0.042350438498719396
                ]
            }
        },
        {
            "type": "Feature",
            "properties": {
                "label": "Business skills",
                "color": "rgb(120.18839164015644, 120.05523000730797, 126.00828383375313)"
            },
            "geometry": {
                "type": "Point",
                "coordinates": [
                    -0.32504990607660655,
                    0.08576741600582044
                ]
            }
        },
        {
            "type": "Feature",
            "properties": {
                "label": "mixed gases",
                "color": "rgb(106.72434342406974, 246.92180386622815, 80.76328701079089)"
            },
            "geometry": {
                "type": "Point",
                "coordinates": [
                    0.61380939768256,
                    -0.5146032936117375
                ]
            }
        },
        {
            "type": "Feature",
            "properties": {
                "label": "Note-taking.",
                "color": "rgb(75.66672569294559, 98.45757776045987, 166.76974960526508)"
            },
            "geometry": {
                "type": "Point",
                "coordinates": [
                    0.8389115004503451,
                    -0.10357716479936963
                ]
            }
        },
        {
            "type": "Feature",
            "properties": {
                "label": "Innovation mindset.",
                "color": "rgb(115.49576444279836, 111.57785783427674, 130.50443597256677)"
            },
            "geometry": {
                "type": "Point",
                "coordinates": [
                    -0.6268280254589135,
                    0.042859231203880736
                ]
            }
        },
        {
            "type": "Feature",
            "properties": {
                "label": "Mathematics.",
                "color": "rgb(113.86167004016951, 84.7276392380967, 121.06368272747929)"
            },
            "geometry": {
                "type": "Point",
                "coordinates": [
                    -0.6737412731464215,
                    0.041358919759153755
                ]
            }
        },
        {
            "type": "Feature",
            "properties": {
                "label": "Syntax magic.",
                "color": "rgb(108.95660571090053, 99.40437858563907, 110.45233990473275)"
            },
            "geometry": {
                "type": "Point",
                "coordinates": [
                    -0.36136881233040297,
                    0.040303440128025406
                ]
            }
        },
        {
            "type": "Feature",
            "properties": {
                "label": "Expectation bias",
                "color": "rgb(149.9702413463538, 141.34586804180023, 85.25617564107759)"
            },
            "geometry": {
                "type": "Point",
                "coordinates": [
                    0.5308841173022782,
                    -0.23554661651323922
                ]
            }
        },
        {
            "type": "Feature",
            "properties": {
                "label": "Music notation",
                "color": "rgb(85.43015005784329, 115.82225988385173, 174.17010290548114)"
            },
            "geometry": {
                "type": "Point",
                "coordinates": [
                    0.26695065525438877,
                    -0.21162435403446833
                ]
            }
        },
        {
            "type": "Feature",
            "properties": {
                "label": "Perception bias.",
                "color": "rgb(150.91762008150562, 141.54322547165208, 84.32049111037551)"
            },
            "geometry": {
                "type": "Point",
                "coordinates": [
                    0.5203837153637951,
                    -0.047525452489249165
                ]
            }
        },
        {
            "type": "Feature",
            "properties": {
                "label": "Adventure stories.",
                "color": "rgb(124.9573635508844, 153.82966126050016, 141.90604619219653)"
            },
            "geometry": {
                "type": "Point",
                "coordinates": [
                    -0.7534291043997744,
                    -0.032005988625609195
                ]
            }
        },
        {
            "type": "Feature",
            "properties": {
                "label": "Purchasing digital assets",
                "color": "rgb(57.81150153095489, 117.26599275829075, 109.52066363962703)"
            },
            "geometry": {
                "type": "Point",
                "coordinates": [
                    0.6176766616622829,
                    -0.40213132464600077
                ]
            }
        },
        {
            "type": "Feature",
            "properties": {
                "label": "vertebrates",
                "color": "rgb(141.2072104203212, 235.9142323581858, 171.40276388711976)"
            },
            "geometry": {
                "type": "Point",
                "coordinates": [
                    -0.8124972135893583,
                    -0.17282023986672904
                ]
            }
        },
        {
            "type": "Feature",
            "properties": {
                "label": "Books that change.",
                "color": "rgb(150.89410393957536, 141.55322285961213, 84.31488083640447)"
            },
            "geometry": {
                "type": "Point",
                "coordinates": [
                    0.5190511707125816,
                    -0.04525367742191094
                ]
            }
        },
        {
            "type": "Feature",
            "properties": {
                "label": "mixed gases",
                "color": "rgb(109.09787452842474, 246.59766020171463, 84.63045190207829)"
            },
            "geometry": {
                "type": "Point",
                "coordinates": [
                    0.612635386456958,
                    -0.5291381104931945
                ]
            }
        },
        {
            "type": "Feature",
            "properties": {
                "label": "Numerical oddities.",
                "color": "rgb(113.88007632374938, 111.28203751701317, 130.75048368877856)"
            },
            "geometry": {
                "type": "Point",
                "coordinates": [
                    -0.6318284988917939,
                    0.03707016683025968
                ]
            }
        },
        {
            "type": "Feature",
            "properties": {
                "label": "Entrepreneurship/Investment",
                "color": "rgb(119.08343162435716, 132.42952146516774, 145.3771620060751)"
            },
            "geometry": {
                "type": "Point",
                "coordinates": [
                    -0.6677539450329877,
                    -0.06135181333291025
                ]
            }
        },
        {
            "type": "Feature",
            "properties": {
                "label": "Exhibitions.",
                "color": "rgb(115.75821967898545, 125.05156957972221, 157.39290327825944)"
            },
            "geometry": {
                "type": "Point",
                "coordinates": [
                    -0.6960969921779396,
                    -0.043542436330675435
                ]
            }
        },
        {
            "type": "Feature",
            "properties": {
                "label": "Classification systems",
                "color": "rgb(104.99569216053035, 142.1266759845565, 165.06145533251873)"
            },
            "geometry": {
                "type": "Point",
                "coordinates": [
                    0.5722933470917497,
                    -0.22408434488231244
                ]
            }
        },
        {
            "type": "Feature",
            "properties": {
                "label": "Innovation collaboration.",
                "color": "rgb(96.17714669583059, 124.75576920171366, 122.6989522156023)"
            },
            "geometry": {
                "type": "Point",
                "coordinates": [
                    -0.09479355751874646,
                    0.09274792109413377
                ]
            }
        },
        {
            "type": "Feature",
            "properties": {
                "label": "Esoteric knowledge.",
                "color": "rgb(113.80218483080614, 113.0708949694333, 130.45926910446497)"
            },
            "geometry": {
                "type": "Point",
                "coordinates": [
                    -0.6446336377101235,
                    0.04581456171029537
                ]
            }
        },
        {
            "type": "Feature",
            "properties": {
                "label": "Literary works.",
                "color": "rgb(113.91908950347228, 113.0910708114132, 130.4649489038442)"
            },
            "geometry": {
                "type": "Point",
                "coordinates": [
                    -0.6449198656038538,
                    0.04555135970112128
                ]
            }
        },
        {
            "type": "Feature",
            "properties": {
                "label": "Hip-hop culture.",
                "color": "rgb(113.91821259425002, 113.19411430377478, 130.49653553219673)"
            },
            "geometry": {
                "type": "Point",
                "coordinates": [
                    -0.6443607429927093,
                    0.04462071549403157
                ]
            }
        },
        {
            "type": "Feature",
            "properties": {
                "label": "Bob Marley",
                "color": "rgb(106.544553151086, 155.04902129481457, 159.6565210855681)"
            },
            "geometry": {
                "type": "Point",
                "coordinates": [
                    0.35035565967919946,
                    -0.3745448680284721
                ]
            }
        },
        {
            "type": "Feature",
            "properties": {
                "label": "Technology development.",
                "color": "rgb(84.9022975597223, 97.85617877256692, 111.75442458371101)"
            },
            "geometry": {
                "type": "Point",
                "coordinates": [
                    -0.029167576423238122,
                    0.06368047476557144
                ]
            }
        },
        {
            "type": "Feature",
            "properties": {
                "label": "vertebrates",
                "color": "rgb(141.0988716952072, 236.1170847963414, 170.90229262296083)"
            },
            "geometry": {
                "type": "Point",
                "coordinates": [
                    -0.8130798771931399,
                    -0.17160071567366025
                ]
            }
        },
        {
            "type": "Feature",
            "properties": {
                "label": "Artistic Expression",
                "color": "rgb(86.81609447043266, 116.03745977446054, 125.93165086635346)"
            },
            "geometry": {
                "type": "Point",
                "coordinates": [
                    -0.35896715482356745,
                    0.26030575959219937
                ]
            }
        },
        {
            "type": "Feature",
            "properties": {
                "label": "Louis XV.",
                "color": "rgb(152.5898454750831, 127.0947456539835, 129.79635451361722)"
            },
            "geometry": {
                "type": "Point",
                "coordinates": [
                    0.26837838951300624,
                    0.09178943392045444
                ]
            }
        },
        {
            "type": "Feature",
            "properties": {
                "label": "Literacy skills.",
                "color": "rgb(170.18453841147405, 168.14003830563684, 55.6119278091091)"
            },
            "geometry": {
                "type": "Point",
                "coordinates": [
                    0.4838664625942794,
                    0.6901004663078631
                ]
            }
        },
        {
            "type": "Feature",
            "properties": {
                "label": "Jazz fusion.",
                "color": "rgb(101.45649909325635, 137.03378633355322, 155.3909218037753)"
            },
            "geometry": {
                "type": "Point",
                "coordinates": [
                    0.22554213039671178,
                    -0.40634736778431435
                ]
            }
        },
        {
            "type": "Feature",
            "properties": {
                "label": "Musical analysis.",
                "color": "rgb(112.64735183316202, 148.34940747923275, 131.31946297559756)"
            },
            "geometry": {
                "type": "Point",
                "coordinates": [
                    0.5365492085999963,
                    -0.27961980436448214
                ]
            }
        },
        {
            "type": "Feature",
            "properties": {
                "label": "Carrying items.",
                "color": "rgb(86.8410439380473, 116.01984493073455, 125.94279961283053)"
            },
            "geometry": {
                "type": "Point",
                "coordinates": [
                    -0.35312755138649593,
                    0.2572380909780002
                ]
            }
        },
        {
            "type": "Feature",
            "properties": {
                "label": "Music genre.",
                "color": "rgb(112.51463343715675, 120.22864408589069, 140.69630735254015)"
            },
            "geometry": {
                "type": "Point",
                "coordinates": [
                    -0.6988711078538639,
                    0.07811143153277932
                ]
            }
        },
        {
            "type": "Feature",
            "properties": {
                "label": "Visual organization.",
                "color": "rgb(145.01468125487997, 116.76740611650534, 187.3336741677867)"
            },
            "geometry": {
                "type": "Point",
                "coordinates": [
                    0.8511679308241173,
                    0.4241198881061332
                ]
            }
        },
        {
            "type": "Feature",
            "properties": {
                "label": "Theater.",
                "color": "rgb(130.79188456458363, 125.86298148347962, 106.26763312695415)"
            },
            "geometry": {
                "type": "Point",
                "coordinates": [
                    -0.724745747038749,
                    0.05078374400418651
                ]
            }
        },
        {
            "type": "Feature",
            "properties": {
                "label": "Programming development.",
                "color": "rgb(84.11282046373957, 99.51011474848998, 112.41412484702848)"
            },
            "geometry": {
                "type": "Point",
                "coordinates": [
                    0.1408441398642482,
                    0.03933887070542674
                ]
            }
        },
        {
            "type": "Feature",
            "properties": {
                "label": "Entrepreneurial experience.",
                "color": "rgb(103.64649564373511, 122.49479900910461, 163.28546606204182)"
            },
            "geometry": {
                "type": "Point",
                "coordinates": [
                    -0.039644104383296574,
                    -0.1921545573641334
                ]
            }
        },
        {
            "type": "Feature",
            "properties": {
                "label": "Genre classification.",
                "color": "rgb(124.5614545792081, 144.90553813409815, 122.29051013076439)"
            },
            "geometry": {
                "type": "Point",
                "coordinates": [
                    -0.7461568742709322,
                    0.04836816753301482
                ]
            }
        },
        {
            "type": "Feature",
            "properties": {
                "label": "Reading skills.",
                "color": "rgb(173.09005915778002, 166.01510949020886, 55.55669199438468)"
            },
            "geometry": {
                "type": "Point",
                "coordinates": [
                    0.5112641990222677,
                    0.6144278583000622
                ]
            }
        },
        {
            "type": "Feature",
            "properties": {
                "label": "Literature genres.",
                "color": "rgb(124.93632843142728, 142.7928641408613, 120.77560980935084)"
            },